"Location ID","Name","Type","Comment","Country","State","County","Latitude","Longitude","Horizontal Datum","Horizontal Collection Method","Vertical Datum","Vertical Collection Method","Location Groups","Elevation","Elevation Unit","Standards","EA_Closed Date","EA_EMS When Created","EA_EMS When Updated","EA_EMS Who Created","EA_EMS Who Updated","EA_Established Date","EA_Well Tag ID"
"E289370","RA 15432 NOX BUBBLE AMEND APRIL 12; 2012","Stack","","","","","55.431839","-120.564098","","Geographic Positioning System (NAD83)","","","15432","","","",NA,2012-04-12 10:03:23,2023-02-07 11:17:17,"Created by Database Link for EMA from 71 Omineca Peace, Oil and Gas Commission","Updated by  EMS from 71 Omineca Peace, Oil and Gas Commission",2012-04-12,""
"E289389","ONE 1318 KW ENERFLEX REBOILER","Stack","","","","","56.35","-122.05","","Geographic Positioning System (NAD83)","","","105870","","","",NA,2012-04-13 09:48:16,2023-02-07 11:17:17,"Created by Database Link for EMA from 71 Omineca Peace, Oil and Gas Commission","Updated by  EMS from 71 Omineca Peace, Oil and Gas Commission",2012-04-13,""
"E289409","NOX BUBBLE FOR 2 COMPRESSORS","Stack","","","","","55.8","-120.6","","Geographic Positioning System (NAD83)","","","106109","","","",NA,2012-04-17 09:09:05,2012-04-19 15:47:58,"Created by Database Link for EMA from 71 Omineca Peace, Oil and Gas Commission","Updated by  EMS from 71 Omineca Peace, Oil and Gas Commission",2012-04-17,""
"E289429","ALTENTECH DRYER","Stack","Aktentech Dryer in Test Location","","","","49.46742","-120.4889","","Google Earth, Google Maps, or other Satellite Imagery","","","","","","",NA,2012-04-18 13:39:23,2012-04-19 15:47:57,"Created by Database Link for EMA from 80 Southern Region, Penticton","Updated by  EMS from 80 Southern Region, Penticton",2012-04-18,""
"E289469","ALTENTECH DRYER TRIALS DISCHARGE","Stack","Single point of discharge from a new biomass drying technology","","","","49.46742","-120.4889","","Google Earth, Google Maps, or other Satellite Imagery","","","","","","",NA,2012-04-20 15:00:21,2012-04-26 15:58:20,"Created by Database Link for EMA from 80 Southern Region, Penticton","Updated by  EMS from 80 Southern Region, Penticton",2012-04-20,""
"E289470","ALTENTECH DRYER TRIALS DISCHARGE","Stack","Single point of discharge from a new biomass drying technology","","","","49.46742","-129.4889","","Google Earth, Google Maps, or other Satellite Imagery","","","","","","",NA,2012-04-20 15:52:02,2012-04-26 15:58:20,"Created by Database Link for EMA from 80 Southern Region, Penticton","Updated by  EMS from 80 Southern Region, Penticton",2012-04-20,""
"E289471","ALTENTECH DRYER TRIALS  DISCHARGE","Stack","Single point of discharge from a new biomass drying technology","","","","49.46742","-120.4889","","Google Earth, Google Maps, or other Satellite Imagery","","","","","","",NA,2012-04-20 16:32:25,2012-04-26 15:58:20,"Created by Database Link for EMA from 80 Southern Region, Penticton","Updated by  EMS from 80 Southern Region, Penticton",2012-04-20,""
"E289490","D3 MONITORING WELL BELL MINE PE1505","Well","Installed in the south west end if the main tailings impoundmet dam #1. Completion Depth of 54.9m, well screen installed in mine rock & natural clay till. (trace gravel/wood, slightly oxidized). Part of  2012 permit amendment -GWMP","","","","54.97991","-126.23305","","Geographic Positioning System (NAD83)","","","1505","791","metre","",NA,2012-04-23 14:28:31,2012-04-24 14:24:14,"Created by Lisa Torunski from 60 Skeena","Updated by Lisa Torunski from 60 Skeena",2012-04-23,""
"E289491","W9 MONITORING WELL BELL MINE PE1505","Well","Installed on west side of propery & down-gradient from main tailings impoundment Dam#1, south of the former plant site wells & north of wells D3 & D4. Completion Depth of 16.2m, well screen installed in natural clay till and clay. Permit amendment 2012","","","","54.98957","-126.23914","","Geographic Positioning System (NAD83)","","","1505","712","metre","",NA,2012-04-23 14:37:47,2012-04-24 14:26:31,"Created by Lisa Torunski from 60 Skeena","Updated by Lisa Torunski from 60 Skeena",2012-04-23,""
"E289492","W9B MONITORING WELL BELL MINE PE1505","Well","Installed on west side & down-gradient from main tailings impoundment Dam#1, south of the former plant site wells & north of wells D3 & D4, Adjacent to well W9. Completion Depth of 7m, well screen installed inclay till. permit amendment 2012. Comments: permit amendment 2012 - water elev. water chemistry 2X/Yr","","","","54.98957","-126.23914","","Google Earth, Google Maps, or other Satellite Imagery","","","1505","712","metre","",NA,2012-04-23 14:47:43,2013-07-15 09:31:33,"Created by Lisa Torunski from 60 Skeena","Updated by Lisa Torunski from 60 Skeena",2012-04-23,""
"E289493","W12 MONITORING WELL BELL MINE PE1505","Well","Installed on east side of property down-gradient from TEX impoundment & up-gradient of Rum Bay. Completion Depth of 17.8m, well screen installed in natural clay till. Permit amendment 2012 - GWMP","","","","54.98674","-126.21814","","Geographic Positioning System (NAD83)","","","1505","720","metre","",NA,2012-04-23 14:55:31,2012-04-24 14:29:49,"Created by Lisa Torunski from 60 Skeena","Updated by Lisa Torunski from 60 Skeena",2012-04-23,""
"E289510","OBS WELL 422 - LOGAN LAKE (PIKES ROAD; SOUTH OF CHARTRAND CREEK)","Well","Use agreement with District of Logan Lake Well TW2-98. WTN.80135; Aquifer 822 ll lC. Located near the junction of Mamit Lk Rd (Hwy 97D) and Meadow Creek Road (Hwy 97C)","","","","50.487914","-120.82855","","Geographic Positioning System (NAD83)","","","","1027","metre","",NA,2012-04-24 10:50:31,2020-02-05 13:02:30,"Created by Laurie Lyons from 30 Southern Region, Kamloops","Updated by Laurie Lyons from 30 Southern Region, Kamloops",2012-04-24,"TRUE"
"E289511","OBS WELL 423 - HAT CREEK (AQ 133 1C; CONFLUENCE OF BONAPARTE R & HAT CR)","Well","Aquifer 133 1C. Near confluence of Bonaparte River & Hat Creek. Near Junction of Cariboo Hwy 97 N & Hwy 99. Historical Hat Creek Ranch.","","","","50.88614","-121.403926","","Geographic Positioning System (NAD83)","","","","","","",NA,2012-04-24 11:14:29,2020-02-05 12:57:01,"Created by Laurie Lyons from 30 Southern Region, Kamloops","Updated by Laurie Lyons from 30 Southern Region, Kamloops",2012-03-09,"TRUE"
"E289512","OBS WELL 400 - HAT CREEK (AQ 134 1A; NEAR CONFLUENCE BONAPARTE R & HAT CR)","Well","Nested well 1 casing with 2 piezometer in Aquifer 134 1A. Deep piezometer is the obs well; shallow piezometer for monitoring purposes.Near confluence of Bonaparte River & Hat Creek. Near Junction of Cariboo Hwy 97 N & Hwy 99. Historical Hat Creek Ranch.","","","","50.8861","-121.4039","","Geographic Positioning System (NAD83)","","","","","","",NA,2012-04-24 11:22:11,2020-04-03 15:26:39,"Created by Laurie Lyons from 30 Southern Region, Kamloops","Updated by Laurie Lyons from 30 Southern Region, Kamloops",2012-03-07,"TRUE"
"E289513","W15 MONITORING WELL BELL MINE PE1505","Well","Installed down-gradient from Dump 7 and up-gradient of Woolverton Bay. Completion Depth of 15.5m, well screen installed in bedrock. Permit amendment 2012 -GWMP","","","","54.99902","-126.21502","","Geographic Positioning System (NAD83)","","","1505","720","metre","",NA,2012-04-24 11:34:55,2012-04-24 14:31:13,"Created by Lisa Torunski from 60 Skeena","Updated by Lisa Torunski from 60 Skeena",2012-04-24,""
"E289514","W17 MONITORING WELL BELL MINE PE1505","Well","Installed down-gradient from the A-Frame Dupm and up-gradient of Woolverton Bay. Adjacent to W17B. Completion Depth of 15.5m, well screen installed in bedrock. Permit amendment 2012 - GWMP","","","","55.00427","-126.21457","","Geographic Positioning System (NAD83)","","","1505","717","metre","",NA,2012-04-24 11:38:28,2012-04-24 14:33:18,"Created by Lisa Torunski from 60 Skeena","Updated by Lisa Torunski from 60 Skeena",2012-04-24,""
"E289515","W17B MONITORING WELL BELL MINE PE1505","Well","Installed down-gradient from the A-Frame Dump and up-gradient of Woolverton Bay. Adjacent to W17. Completion Depth of 7.9m, well screen installed in natural clay. Permit amendment 2012 -GWMP","","","","55.00427","-126.21457","","Geographic Positioning System (NAD83)","","","1505","716","metre","",NA,2012-04-24 11:46:53,2012-04-24 14:35:06,"Created by Lisa Torunski from 60 Skeena","Updated by Lisa Torunski from 60 Skeena",2012-04-24,""
"E289516","W19 MONITORING WELL BELL MINE PE1505","Well","Well installed in the mine perimeter north and down-gradient from the A-Frame Dump. Adjacent to W19B. Completion Depth of 23.9m, well screen installed in natural clay till. Permit amendment 2012 -GWMP","","","","55.011222","-126.21738","","Geographic Positioning System (NAD83)","","","1505","729","metre","",NA,2012-04-24 13:18:29,2012-04-24 14:36:13,"Created by Lisa Torunski from 60 Skeena","Updated by Lisa Torunski from 60 Skeena",2012-04-24,""
"E289517","W19B MONITORING WELL BELL MINE PE1505","Well","Well installed in the mine perimeter north and down-gradient from the A-Frame Dump. Adjacent to W19. Completion Depth of 7m, well screen installed in natural clay till. Permit amendment 2012 - GWMP","","","","55.011222","-126.21738","","Geographic Positioning System (NAD83)","","","1505","729","metre","",NA,2012-04-24 13:20:57,2012-04-24 14:37:30,"Created by Lisa Torunski from 60 Skeena","Updated by Lisa Torunski from 60 Skeena",2012-04-24,""
"E289518","W22 MONITORING WELL BELL MINE PE1505","Well","Well installed in the mine perimeter north and down-gradient from the A-Frame Dump. Adjacent to W19. Completion Depth of 7m, well screen installed in natural clay till. Permit amendment 2012 - GWMP","","","","55.0131","-126.23521","","Geographic Positioning System (NAD83)","","","1505","777","metre","",NA,2012-04-24 13:22:38,2012-04-24 14:38:22,"Created by Lisa Torunski from 60 Skeena","Updated by Lisa Torunski from 60 Skeena",2012-04-24,""
"E289519","W23 MONITORING WELL BELL MINE PE1505","Well","Installed on west side of the mine property down-gradient from former plant site and up-gradient of Babine Lake. Adjacent to W23B. Completion Depth of 22.6m, well screen installed in bedrock. Permit amendment 2012 - GWMP","","","","54.99635","-126.24339","","Geographic Positioning System (NAD83)","","","1505","714","metre","",NA,2012-04-24 13:25:32,2012-04-24 14:39:12,"Created by Lisa Torunski from 60 Skeena","Updated by Lisa Torunski from 60 Skeena",2012-04-24,""
"E289520","W23B MONITORING WELL BELL MINE PE1505","Well","Installed on west side of the mine property down-gradient from former plant site & up-gradient of Babine Lake. Adjacent to W23. Completion Depth of 8.1m, well screen installed in silty sand & natural clay till. Permit amendment 2012- GWMP","","","","54.99635","-126.24339","","Geographic Positioning System (NAD83)","","","1505","714","metre","",NA,2012-04-24 13:29:13,2012-04-24 14:40:07,"Created by Lisa Torunski from 60 Skeena","Updated by Lisa Torunski from 60 Skeena",2012-04-24,""
"E289521","D4 MONITORING WELL BELL MINE PE1505","Well","Installed in the south west end if the main tailings impoundmet dam #1. Completion Depth of 37.2m, well screen installed in boulders & natural clay till (trace gravel/roots). Permit amendment 2012 -GWMP","","","","54.97993","-126.23482","","Geographic Positioning System (NAD83)","","","1505","764","metre","",NA,2012-04-24 14:00:41,2012-04-24 14:41:05,"Created by Lisa Torunski from 60 Skeena","Updated by Lisa Torunski from 60 Skeena",2012-04-24,""
"E289522","D10 MONITORING WELL BELL MINE PE1505","Well","Installed in the south east end if the main tailings impoundmet dam #3. Completion Depth of 35.1m, well screen installed in minerock &natural clay till. Well ends in bedrock (oxidized). Added as part of 2012 permit amendment Comments: Added as part of 2012 permit Amendment","","","","54.97781","-126.22061","","Geographic Positioning System (NAD83)","","","1505","791","metre","",NA,2012-04-24 14:04:01,2012-04-24 14:41:47,"Created by Lisa Torunski from 60 Skeena","Updated by Lisa Torunski from 60 Skeena",2012-04-24,""
"E289523","P25 MONITORING WELL BELL MINE PE1505","Well","Installed on west side of the mine property in the area of the former plant site and up-gradient of W23/W23B & Babine Lake. Completion Depth of 14m, well screen installed in bedrock. Added as part of 2012 permit amendment Comments: Added as part of 2012 permit Amendment","","","","54.99644","-126.24121","","Geographic Positioning System (NAD83)","","","1505","747","metre","",NA,2012-04-24 14:10:16,2012-04-24 14:42:22,"Created by Lisa Torunski from 60 Skeena","Updated by Lisa Torunski from 60 Skeena",2012-04-24,""
"E289524","P26 MONITORING WELL BELL MINE PE1505","Well","Installed on west side of the mine property in the area of the former plant site and up-gradient of W23/W23B & Babine Lake. Completion Depth of 17.3m, well screen installed in bedrock.  Added as part of 2012 permit amendment Comments: Added as part of 2012 permit Amendment","","","","54.9962","-126.2358","","Geographic Positioning System (NAD83)","","","1505","754","metre","",NA,2012-04-24 14:11:47,2012-04-24 14:42:57,"Created by Lisa Torunski from 60 Skeena","Updated by Lisa Torunski from 60 Skeena",2012-04-24,""
"E289525","P27 MONITORING WELL BELL MINE PE1505","Well","Installed on west side of the mine property in the area of the former plant site and up-gradient of W23/W23B & Babine Lake. Completion Depth of 23.3m, well screen installed in bedrock.  Added as part of 2012 permit amendment Comments: Added as part of 2012 permit Amendment","","","","54.99709","-126.2358","","Geographic Positioning System (NAD83)","","","1505","760","metre","",NA,2012-04-24 14:16:26,2012-04-24 14:43:34,"Created by Lisa Torunski from 60 Skeena","Updated by Lisa Torunski from 60 Skeena",2012-04-24,""
"E289526","P28 MONITORING WELL BELL MINE PE1505","Well","Installed on west side of the mine property in the area of the former plant site and up-gradient of W23/W23B & Babine Lake. Completion Depth of 12.8m, well screen installed in bedrock.   Added as part of 2012 permit amendment Comments: Added as part of 2012 permit Amendment","","","","54.99539","-126.23988","","Geographic Positioning System (NAD83)","","","1505","749","metre","",NA,2012-04-24 14:18:48,NA,"Created by Lisa Torunski from 60 Skeena","",2012-04-24,""
"E289527","P29 MONITORING WELL BELL MINE PE1505","Well","Installed on west side of the mine property in the area of the former plant site and up-gradient of W23/W23B & Babine Lake. Completion Depth of 14.9m, well screen installed in bedrock.   Added as part of 2012 permit amendment Comments: Added as part of 2012 permit Amendment","","","","54.99678","-126.2386","","Geographic Positioning System (NAD83)","","","1505","751","metre","",NA,2012-04-24 14:21:48,NA,"Created by Lisa Torunski from 60 Skeena","",2012-04-24,""
"E289528","R21 MONITORING WELL BELL MINE PE1505","Well","Installed on the north end of the North Rock Dump. Completion Depth of 36.1m, well screen installed in mine rock, sand and natural clay till. Permit amendment 2012 -GWMP","","","","55.01157","-126.23464","","Google Earth, Google Maps, or other Satellite Imagery","","","1505","","","",NA,2012-04-24 14:48:21,NA,"Created by Lisa Torunski from 60 Skeena","",2012-04-24,""
"E289529","LEDCOR LOG DEBARKING AND CHIIPING FACILITY IN PRINCETON; BC","Stack","","","","","49.466","-120.495","","Google Earth, Google Maps, or other Satellite Imagery","","","","","","",NA,2012-04-25 08:49:18,2012-04-26 15:58:21,"Created by Database Link for EMA from 80 Southern Region, Penticton","Updated by  EMS from 80 Southern Region, Penticton",2012-04-25,""
"E289530","LOG DEBARKING AND CHIPPING UNIT","Stack","","","","","49.466","-120.495","","Google Earth, Google Maps, or other Satellite Imagery","","","105782","","","",NA,2012-04-25 09:04:24,2012-04-26 15:58:21,"Created by Database Link for EMA from 80 Southern Region, Penticton","Updated by  EMS from 80 Southern Region, Penticton",2012-04-25,""
"E289531","NOX BUBBLE","Stack","Daiber d-44-C/94-B-16","","","","56.79","-122.29","","Geographic Positioning System (NAD83)","","","106131","","","",NA,2012-04-25 14:06:07,2012-04-26 15:58:20,"Created by Database Link for EMA from 71 Omineca Peace, Oil and Gas Commission","Updated by  EMS from 71 Omineca Peace, Oil and Gas Commission",2012-04-25,""
"E289549","W5 MONITORING WELL BELL MINE PE1505","Well","Installed down-gradient of the main tailings impoundment dam#1Added as a monitoring site in 2012 permit amendment - GWMP","","","","54.9798","-126.23675","","Geographic Positioning System (NAD83)","","","1505","722","metre","",NA,2012-04-26 08:54:46,NA,"Created by Lisa Torunski from 60 Skeena","",2012-04-26,""
"E289550","OBS WELL 394 - NANOOSE (NUTTAL DR.)","Well","2500 Nuttal Drive","","","","49.301","-124.19153","","Geographic Positioning System (NAD83)","","","","","","",NA,2012-04-26 14:23:42,NA,"Created by Graeme Henderson from 10 Vancouver Island, Nanaimo","",2012-04-26,"TRUE"
"E289551","OBS WELL 395 - NANOOSE (RIVER`S EDGE DR.)","Well","900 River`s Edge Drive","","","","49.28063","-124.28066","","Geographic Positioning System (NAD83)","","","","","","",NA,2012-04-26 14:33:20,2017-07-13 13:41:42,"Created by Graeme Henderson from 10 Vancouver Island, Nanaimo","Updated by  EMS from 10 Vancouver Island, Nanaimo",2012-04-26,"TRUE"
"E289552","MURRAY RIVER OFF COWIE CREEK ROAD","River, Stream, or Creek","Water quality monitoring station downstream from all mining activity on Murray River","","","","55.574167","-121.1875","","1:20,000 scale map (NAD83)","","","","","","",NA,2012-04-26 15:56:35,NA,"Created by James Jacklin from 70 Omineca-Peace, Prince George","",2012-04-26,""
"E289553","WOLVERINE RIVER AT HIGHWAY CROSSING NEAR MOUTH","River, Stream, or Creek","Below highway crossing near where enters Murray River","","","","55.130556","-121.053056","","1:20,000 scale map (NAD83)","","","","","","",NA,2012-04-26 16:02:17,2013-09-16 11:04:02,"Created by James Jacklin from 70 Omineca-Peace, Prince George","Updated by James Jacklin from 70 Omineca-Peace, Prince George",2012-04-26,""
"E289554","FLATBED CREEK AT HIGHWAY CROSSING","River, Stream, or Creek","Water quality station near camping park, beside Tumbler Ridge","","","","55.119167","-121.018333","","1:20,000 scale map (NAD83)","","","","","","",NA,2012-04-26 16:08:21,NA,"Created by James Jacklin from 70 Omineca-Peace, Prince George","",2012-04-26,""
"E289555","MURRAY RIVER UPSTREAM SITE AT BRIDGE CROSSING","River, Stream, or Creek","Upstream of all mining activity at the southern most bridge crossing","","","","54.902217","-121.222869","","1:20,000 scale map (NAD83)","","","","","","",NA,2012-04-26 16:09:38,NA,"Created by James Jacklin from 70 Omineca-Peace, Prince George","",2012-04-26,""
"E289556","MURRAY RIVER DOWNSTREAM OF MINE ACTIVITY","River, Stream, or Creek","Site unknown","","","","55.169444","-121.169444","","1:20,000 scale map (NAD83)","","","","","","",NA,2012-04-26 16:11:01,NA,"Created by James Jacklin from 70 Omineca-Peace, Prince George","",2012-04-26,""
"E289569","CONUMA COAL WILLOW CREEK MINE (PE17042) - NORTH POND","Outfall","Sedimentation Pond Underflow Pipe Outlet. Discharge - Pine River.","","","","55.630311","-122.246725","","1:20,000 scale map (NAD83)","","","17042","","","",NA,2012-04-27 16:00:29,2017-07-27 10:24:26,"Created by Database Link for EMA from 70 Omineca-Peace, Prince George","Updated by Alan Gibson from 70 Omineca-Peace, Prince George",2012-04-27,""
"E289570","CONUMA COAL WILLOW CREEK MINE (PE17042) - 4N PIT","Outfall","Pit Drain outlet. Discharge - Ground, Rock Pit at Mine Closure.","","","","53.63055","-122.226666","","IMAP- 1:20,000 TRIM (NAD83)","","","17042","","","",NA,2012-04-27 16:08:46,2017-07-27 10:24:41,"Created by Database Link for EMA from 70 Omineca-Peace, Prince George","Updated by Alan Gibson from 70 Omineca-Peace, Prince George",2012-04-27,""
"E289609","WANETA EXPANSION GENERAL PARTNER LTD. (106130)","River, Stream, or Creek","dredging and temporary storage of contaminated sediments","","","","49.00672","-117.611","","Geographic Positioning System (NAD83)","","","","","","",NA,2012-05-01 16:42:30,2012-05-03 15:59:03,"Created by Database Link for EMA from 90 Headquarters, Victoria","Updated by  EMS from 90 Headquarters, Victoria",2012-05-01,""
"E289629","KAMLOOPS GOOSE LAKE","Air Quality","3805 Goose Lake Road","","","","50.588333","-120.401111","","Geographic Positioning System (NAD83)","","","","975","metre","",NA,2012-05-03 14:19:18,2013-12-30 09:37:16,"Created by Sharon Gunter from 30 Southern Region, Kamloops","Updated by  EMS from 30 Southern Region, Kamloops",2012-04-27,""
"E289649","LITTLE LAC DES ROCHES AT CENTRE","Lake or Pond","At the deepest part of the lake.","","","","51.499514","-120.625475","","Google Earth, Google Maps, or other Satellite Imagery","","","","1126","metre","",NA,2012-05-04 12:03:11,2012-05-04 12:11:46,"Created by Marg Sidney from 30 Southern Region, Kamloops","Updated by Marg Sidney from 30 Southern Region, Kamloops",2012-05-04,""
"E289650","NO. 1 ACID PLANT STACK","Stack","Lead/Zinc Smelter Acid Plant Stack","","","","49.101504","-117.720604","","Google Earth, Google Maps, or other Satellite Imagery","","","2692","45","metre","",NA,2012-05-04 14:22:57,2012-05-10 16:02:16,"Created by Database Link for EMA from 40 Kootenay, Nelson","Updated by  EMS from 40 Kootenay, Nelson",2012-05-04,""
"E289669","DISPOSAL WELL","Well","8-31-81-17 W6M disposal well","","","","56.06343","-120.64087","","Google Earth, Google Maps, or other Satellite Imagery","","","106146","","","",NA,2012-05-07 11:37:27,2012-05-10 16:02:11,"Created by Database Link for EMA from 72 Omineca-Peace, Fort St. John","Updated by  EMS from 72 Omineca-Peace, Fort St. John",2012-05-07,""
"E289670","ACC PRECIPITATION DISCHARGE","In-Plant","Surface discharge of accumulated precipitation","","","","56.06343","-120.64087","","Google Earth, Google Maps, or other Satellite Imagery","","","106146","","","",NA,2012-05-07 11:47:15,2012-05-10 16:02:13,"Created by Database Link for EMA from 72 Omineca-Peace, Fort St. John","Updated by  EMS from 72 Omineca-Peace, Fort St. John",2012-05-07,""
"E289671","ACC PRECIP DISCHARGE","In-Plant","Surface discharge of accumulated precipitation","","","","56.06343","-120.64087","","Google Earth, Google Maps, or other Satellite Imagery","","","","","","",NA,2012-05-07 12:08:48,2012-05-10 16:02:17,"Created by Database Link for EMA from 72 Omineca-Peace, Fort St. John","Updated by  EMS from 72 Omineca-Peace, Fort St. John",2012-05-07,""
"E289672","INCINERATOR DISCHARGE","Stack","Discharge of air contaminants fron a tank vapour recovery system incinerator","","","","56.06343","-120.64087","","Google Earth, Google Maps, or other Satellite Imagery","","","106146","","","",NA,2012-05-07 12:23:22,2012-05-10 16:02:13,"Created by Database Link for EMA from 72 Omineca-Peace, Fort St. John","Updated by  EMS from 72 Omineca-Peace, Fort St. John",2012-05-07,""
"E289689","OBS WELL 396 - NANOOSE (BALLENAS RD.)","Well","1809 Ballenas Road, Nanoose, BC","","","","49.3014","-124.2294","","Geographic Positioning System (NAD83)","","","","","","",NA,2012-05-08 09:37:16,2012-08-01 14:06:14,"Created by Graeme Henderson from 10 Vancouver Island, Nanaimo","Updated by Bruce Boyd from 10 Vancouver Island, Nanaimo",2012-05-08,"TRUE"
"E289709","SWEETWATER_105466_B/G GW","Well","This is the EBA monitoring well, 390m U/G of the RIBs","","","","49.1791","-115.2387","","Geographic Positioning System (NAD83)","","","","","","",NA,2012-05-09 08:13:02,2012-05-09 08:44:29,"Created by WENDY MURDOCH from 41 Kootenay, Cranbrook","Updated by WENDY MURDOCH from 41 Kootenay, Cranbrook",2012-05-09,""
"E289710","SWEETWATER_105466_D/G; MW 09-01","Well","35m SW of RIB","","","","49.1763","-115.2427","","Geographic Positioning System (NAD83)","","","","","","",NA,2012-05-09 08:16:06,2012-05-09 08:46:15,"Created by WENDY MURDOCH from 41 Kootenay, Cranbrook","Updated by WENDY MURDOCH from 41 Kootenay, Cranbrook",2012-05-09,""
"E289711","SWEETWATER_105466_D/G; MW 09-02","Well","65m SW of RIBs","","","","49.1762","-115.2418","","Geographic Positioning System (NAD83)","","","","","","",NA,2012-05-09 08:19:08,2012-05-09 08:41:53,"Created by WENDY MURDOCH from 41 Kootenay, Cranbrook","Updated by WENDY MURDOCH from 41 Kootenay, Cranbrook",2012-05-09,""
"E289712","SWEETWATER_105466_D/G; MW 09-03","Well","265m S of RIBs","","","","49.1743","-115.2411","","Geographic Positioning System (NAD83)","","","","","","",NA,2012-05-09 08:22:16,2012-05-09 08:38:13,"Created by WENDY MURDOCH from 41 Kootenay, Cranbrook","Updated by WENDY MURDOCH from 41 Kootenay, Cranbrook",2012-05-09,""
"E289713","SWEETWATER_105466_D/G; MW 09-04","Well","155m S of RIBs","","","","49.1758","-115.2441","","Geographic Positioning System (NAD83)","","","","","","",NA,2012-05-09 08:24:26,2012-05-09 08:39:28,"Created by WENDY MURDOCH from 41 Kootenay, Cranbrook","Updated by WENDY MURDOCH from 41 Kootenay, Cranbrook",2012-05-09,""
"E289715","FOUR (4) 3356 KW WAUKESHA 16V-AT275GL COMPRESSORS","Stack","","","","","59.4754","-122.3367","","Geographic Positioning System (NAD83)","","","100503","","","",NA,2012-05-09 10:39:31,2012-05-10 16:02:14,"Created by Database Link for EMA from 71 Omineca Peace, Oil and Gas Commission","Updated by  EMS from 71 Omineca Peace, Oil and Gas Commission",2012-05-09,""
"E289717","HAZELTINE CREEK DISCHARGE","Outfall","Discharge of mine water to Hazeltine Creek","","","","52.5225","-121.587111","","Geographic Positioning System (NAD83)","","","11678","","","",NA,2012-05-09 16:30:21,2012-05-10 16:02:15,"Created by Database Link for EMA from 50 Cariboo, Williams Lake","Updated by  EMS from 50 Cariboo, Williams Lake",2012-05-09,""
"E289729","BIRCH LAKE @ DEEPEST POINT","Lake or Pond","","","","","51.453128","-120.503075","","Google Earth, Google Maps, or other Satellite Imagery","","","","1126","metre","",NA,2012-05-10 11:22:59,NA,"Created by Marg Sidney from 30 Southern Region, Kamloops","",2012-05-10,""
"E289730","AKIE MINE PORTAL SEDIMENTATION POND","Outfall","SEDIMENTATION POND","","","","57.37","-124.84","","IMAP- 1:20,000 TRIM (NAD83)","","","105788; 106429","","","",NA,2012-05-10 11:49:28,NA,"Created by Database Link for EMA from 70 Omineca-Peace, Prince George","",2012-05-10,""
"E289733","AKIE MINE WASTE ROCK DUMP POND","Outfall","Sedimentation Pond","","","","57.4","-124.8","","Google Earth, Google Maps, or other Satellite Imagery","","","105788; 106429","","","",NA,2012-05-10 12:14:08,NA,"Created by Database Link for EMA from 70 Omineca-Peace, Prince George","",2012-05-10,""
"E289734","NORTH PEACE REGIONAL MUNICIPAL SOLID WASTE LANDFILL","Landfill","","","","","56.21545","-120.9064","","Google Earth, Google Maps, or other Satellite Imagery","","","106160","","","",NA,2012-05-10 13:16:35,2012-05-10 16:02:16,"Created by Database Link for EMA from 72 Omineca-Peace, Fort St. John","Updated by  EMS from 72 Omineca-Peace, Fort St. John",2012-05-10,""
"E289749","NORTH PEACE REGIONAL MUNICPAL SOLID WASTE LANDFILL (AIR CURTAIN)","Air Quality","","","","","56.21545","-120.9064","","Google Earth, Google Maps, or other Satellite Imagery","","","","","","",NA,2012-05-10 16:04:00,2012-05-17 16:03:38,"Created by Database Link for EMA from 72 Omineca-Peace, Fort St. John","Updated by  EMS from 72 Omineca-Peace, Fort St. John",2012-05-10,""
"E289770","NORTH PEACE REGIONAL MUNICIPAL SOLID WASTE LANDFILL (AIR)","Air Quality","","","","","56.21545","-120.9064","","Google Earth, Google Maps, or other Satellite Imagery","","","106160","","","",NA,2012-05-11 10:05:47,2012-05-17 16:03:27,"Created by Database Link for EMA from 72 Omineca-Peace, Fort St. John","Updated by  EMS from 72 Omineca-Peace, Fort St. John",2012-05-11,""
"E289771","WINDCHIMES MOBILE HOME PARK LTD.","Tile Field","45 unit manufactured home park","","","","50.7088","-120.3409","","Google Earth, Google Maps, or other Satellite Imagery","","","106056","360","metre","",NA,2012-05-11 16:05:05,2012-05-17 16:03:29,"Created by Database Link for EMA from 30 Southern Region, Kamloops","Updated by  EMS from 30 Southern Region, Kamloops",2012-05-11,""
"E289791","JACKSONS HOLE @ DEEPEST PT.","Lake or Pond","deepest part of the lake a little south of center (50`)","","","","52.429142","-122.072075","","Google Earth, Google Maps, or other Satellite Imagery","","","","970","metre","",NA,2012-05-14 13:49:04,2017-07-13 13:41:42,"Created by Chris Swan from 50 Cariboo, Williams Lake","Updated by  EMS from 50 Cariboo, Williams Lake",2012-05-14,""
"E289792","JACKSONS HOLE @ SOUTH END","Lake or Pond","","","","","52.425519","-122.071036","","Google Earth, Google Maps, or other Satellite Imagery","","","","970","metre","",NA,2012-05-14 13:52:11,NA,"Created by Chris Swan from 50 Cariboo, Williams Lake","",2012-05-14,""
"E289809","NOX BUBBLE","Stack","","","","","56.35","-122.05","","Geographic Positioning System (NAD83)","","","106177","","","",NA,2012-05-15 11:21:15,2012-05-17 16:03:30,"Created by Database Link for EMA from 71 Omineca Peace, Oil and Gas Commission","Updated by  EMS from 71 Omineca Peace, Oil and Gas Commission",2012-05-15,""
"E289810","SOX BUBBLE","Stack","","","","","56.35","-122.05","","Geographic Positioning System (NAD83)","","","106177","","","",NA,2012-05-15 11:28:09,2012-05-17 16:03:31,"Created by Database Link for EMA from 71 Omineca Peace, Oil and Gas Commission","Updated by  EMS from 71 Omineca Peace, Oil and Gas Commission",2012-05-15,""
"E289829","954 KW WAUKESHA L5774LT COMPRESSORS","Stack","","","","","56.87","-122.34","","Geographic Positioning System (NAD83)","","","106092","","","",NA,2012-05-16 11:29:36,2012-05-17 16:03:38,"Created by Database Link for EMA from 71 Omineca Peace, Oil and Gas Commission","Updated by  EMS from 71 Omineca Peace, Oil and Gas Commission",2012-05-16,""
"E289831","PA 106092: ONE (1) 1253 KW WAUKESHA L7044GSI COMPRESSOR (Q-210)","Stack","","","","","56.87","-122.34","","Geographic Positioning System (NAD83)","","","106092","","","",NA,2012-05-16 13:30:42,2012-05-17 16:03:26,"Created by Database Link for EMA from 71 Omineca Peace, Oil and Gas Commission","Updated by  EMS from 71 Omineca Peace, Oil and Gas Commission",2012-05-16,""
"E289832","TWO (2) 1469 KW WAUKESHA L9390GSI COMPRESSORS (Q-220; Q-230)","Stack","","","","","56.87","-122.34","","Geographic Positioning System (NAD83)","","","106092","","","",NA,2012-05-16 13:39:14,2012-05-17 16:03:32,"Created by Database Link for EMA from 71 Omineca Peace, Oil and Gas Commission","Updated by  EMS from 71 Omineca Peace, Oil and Gas Commission",2012-05-16,""
"E289833","ONE 395 KW WAUKESHA H24GL GENERATOR","Stack","","","","","56.87","-122.34","","Geographic Positioning System (NAD83)","","","106092","","","",NA,2012-05-16 13:47:09,2012-05-17 16:03:33,"Created by Database Link for EMA from 71 Omineca Peace, Oil and Gas Commission","Updated by  EMS from 71 Omineca Peace, Oil and Gas Commission",2012-05-16,""
"E289834","ONE (1) 395 KW WAUKESHA H24GL GENERATOR BACKUP G-200","Stack","","","","","56.87","-122.34","","Geographic Positioning System (NAD83)","","","106092","","","",NA,2012-05-16 13:53:33,2012-05-17 16:03:34,"Created by Database Link for EMA from 71 Omineca Peace, Oil and Gas Commission","Updated by  EMS from 71 Omineca Peace, Oil and Gas Commission",2012-05-16,""
"E289835","TWO (2) 794 KW WAUKESHA P48GL GENERATORS","Stack","","","","","56.87","-122.34","","Geographic Positioning System (NAD83)","","","106092","","","",NA,2012-05-16 14:01:05,2012-05-17 16:03:34,"Created by Database Link for EMA from 71 Omineca Peace, Oil and Gas Commission","Updated by  EMS from 71 Omineca Peace, Oil and Gas Commission",2012-05-16,""
"E289836","ONE (1) 1907 KW HEAT MEDIUM HEATER (Q-710)","Stack","","","","","56.87","-122.34","","Geographic Positioning System (NAD83)","","","106092","","","",NA,2012-05-16 14:10:45,2012-05-17 16:03:26,"Created by Database Link for EMA from 71 Omineca Peace, Oil and Gas Commission","Updated by  EMS from 71 Omineca Peace, Oil and Gas Commission",2012-05-16,""
"E289837","ONE (1) 88 KW DE ETHANIZER REBOILER (H-633)","Stack","","","","","56.87","-122.34","","Geographic Positioning System (NAD83)","","","106092","","","",NA,2012-05-16 14:26:59,2012-05-17 16:03:35,"Created by Database Link for EMA from 71 Omineca Peace, Oil and Gas Commission","Updated by  EMS from 71 Omineca Peace, Oil and Gas Commission",2012-05-16,""
"E289838","HP/LP FLARE STACK","Stack","","","","","56.87","-122.34","","Geographic Positioning System (NAD83)","","","106092","","","",NA,2012-05-16 14:41:29,NA,"Created by Database Link for EMA from 71 Omineca Peace, Oil and Gas Commission","",2012-05-16,""
"E289839","ONE (1) HP FLARE STACK (A-58-F)","Stack","","","","","56.87","-122.34","","Geographic Positioning System (NAD83)","","","106092","","","",NA,2012-05-16 14:53:28,2012-05-17 16:03:36,"Created by Database Link for EMA from 71 Omineca Peace, Oil and Gas Commission","Updated by  EMS from 71 Omineca Peace, Oil and Gas Commission",2012-05-16,""
"E289840","PA 106092: ACCUMULATED SURFACE PRECIPITATION","In-Plant","","","","","56.87","-122.34","","Geographic Positioning System (NAD83)","","","106092","","","",NA,2012-05-16 15:33:02,NA,"Created by Database Link for EMA from 71 Omineca Peace, Oil and Gas Commission","",2012-05-16,""
"E289841","SUNSET CK D/S PIT RUNOFF","River, Stream, or Creek","Exit Hwy 97C at Sunset Main interchange, turn right onto Pattinson FSR to where pit runoff crosses road by culvert.  Walk downstream to main creek and sample well downstream of the pit runoff stream","","","","49.902778","-120.162027","","1:20,000 scale map (NAD83)","","","","1440","metre","",NA,2012-05-16 16:30:43,NA,"Created by Bob Grace from 30 Southern Region, Kamloops","",2012-05-16,""
"E289909","105882 RICHFIELD VENTURES CORP.","Tile Field","Sewage treatment system for New Gold Blackwater exploration camp","","","","53.18144","-124.8555","","Google Earth, Google Maps, or other Satellite Imagery","","","105882","","","",NA,2012-05-28 12:03:57,2012-05-31 16:58:50,"Created by Database Link for EMA from 70 Omineca-Peace, Prince George","Updated by  EMS from 70 Omineca-Peace, Prince George",2012-05-28,""
"E289910","MW09-01 HUCKLEBERRY MINE WELL PE-14483","Well","monitoring well west of the TMF-2 embankment","","","","53.6759","-127.207276","","Geographic Positioning System (NAD83)","","","","","","",NA,2012-05-28 13:31:38,NA,"Created by Jeanien Carmody-Fallows from 60 Skeena","",2012-05-28,""
"E289911","MW09-02 WELL HUCKLEBERRY MINE PE-14493","Well","Monitoring well adjacent to SC-2, downgradient of TMF-2","","","","53.67069","-127.19935","","Geographic Positioning System (NAD83)","","","","","","",NA,2012-05-28 13:34:37,2012-05-28 14:06:06,"Created by Jeanien Carmody-Fallows from 60 Skeena","Updated by Jeanien Carmody-Fallows from 60 Skeena",2012-05-28,""
"E289912","MW09-05 WELL HUCKLEBERRY MINE PE-14483","Well","monitoring well adjacent to SC-5, downgradient of TMF-2","","","","53.670697","-127.176786","","Geographic Positioning System (NAD83)","","","","","","",NA,2012-05-28 13:40:05,2012-05-28 13:41:57,"Created by Jeanien Carmody-Fallows from 60 Skeena","Updated by Jeanien Carmody-Fallows from 60 Skeena",2012-05-28,""
"E289913","MW94-214 WELL HUCKLEBERRY MINE PE-14483","Well","monitoring well adjacent to SC-8, downgradient of TMF-3 main embankment","","","","53.681345","-127.228442","","Geographic Positioning System (NAD83)","","","","","","",NA,2012-05-28 13:45:26,NA,"Created by Jeanien Carmody-Fallows from 60 Skeena","",2012-05-28,""
"E289914","MW12-01 WELL HUCKLEBERRY MINE PE-14483","Well","Monitoring well adjacent to SC-6, downgradient to TMF-3","","","","53.689901","-127.241575","","Geographic Positioning System (NAD83)","","","","","","",NA,2012-05-28 13:48:26,NA,"Created by Jeanien Carmody-Fallows from 60 Skeena","",2012-05-28,""
"E289915","MW12-02 WELL HUCKLEBERRY MINE PE14483","Well","Monitoring well adjacent to SC-7, downgradient of TMF-3","","","","53.684251","-127.239665","","Geographic Positioning System (NAD83)","","","","","","",NA,2012-05-28 13:53:47,NA,"Created by Jeanien Carmody-Fallows from 60 Skeena","",2012-05-28,""
"E289916","MW12-03 WELL HUCKLEBERRY MINE PE-14483","Well","Monitoring well adjacent to SC-8, downgradient of TMF-3","","","","53.680438","-127.218823","","Geographic Positioning System (NAD83)","","","","","","",NA,2012-05-28 13:57:11,NA,"Created by Jeanien Carmody-Fallows from 60 Skeena","",2012-05-28,""
"E289917","MW12-04 WELL HUCKLEBERRY MINE PE-14483","Well","Monitoring well northern edge of the TMF-3 impoundment","","","","53.693261","-127.232748","","Geographic Positioning System (NAD83)","","","","","","",NA,2012-05-28 14:00:35,2012-05-28 14:07:49,"Created by Jeanien Carmody-Fallows from 60 Skeena","Updated by Jeanien Carmody-Fallows from 60 Skeena",2012-05-28,""
"E289918","MW12-05 WELL HUCKLEBERRY MINE PE-14483","Well","Monitoring well north edge of th TMF-3 impoundment","","","","53.691728","-127.226578","","Geographic Positioning System (NAD83)","","","","","","",NA,2012-05-28 14:04:37,NA,"Created by Jeanien Carmody-Fallows from 60 Skeena","",2012-05-28,""
"E289919","MW12-06 WELL HUCKLEBERRY MINE PE-14483","Well","Monitoring well north edge of TMF-3 impoundment, downgradient of the saddle dam","","","","53.691209","-127.214458","","Geographic Positioning System (NAD83)","","","","","","",NA,2012-05-28 14:10:31,NA,"Created by Jeanien Carmody-Fallows from 60 Skeena","",2012-05-28,""
"E289920","TMF-3 SUPERNATANT HUCKLEBERRY MINE PE-14483","In-Plant","Supernatant (mine water) of Tailings management facility 3","","","","53.6875","-127.224","","Google Earth, Google Maps, or other Satellite Imagery","","","","","","",NA,2012-05-28 14:27:47,NA,"Created by Jeanien Carmody-Fallows from 60 Skeena","",2012-05-28,""
"E289930","BREWERY HILL SEEP","Seepage or Seepage Pools","","","","","49","-117","","Geographic Positioning System (NAD83)","","","","","","",NA,2012-06-01 13:16:24,NA,"Created by Alison Neufeld from 40 Kootenay, Nelson","",2012-06-01,""
"E289951","HULDRA 11478 LINED TAILINGS IMPOUNDMENT","Outfall","Located within existing TSF","","","","50.195","-120.8883","","IMAP- 1:20,000 TRIM (NAD83)","","","11478","","","",NA,2012-06-04 16:43:11,2012-06-05 13:51:42,"Created by Brian Yamelst from 30 Southern Region, Kamloops","Updated by Brian Yamelst from 30 Southern Region, Kamloops",2012-06-04,""
"E289969","TAYLOR WINDFALL MINE ADIT","River, Stream, or Creek","Comments: Site is an old mining adit (approx 1930s), groundwater is trickling out from the opening and running into Battlement Creek.","","","","51.108228","-123.352519","","Google Earth, Google Maps, or other Satellite Imagery","","","","1663","metre","",NA,2012-06-07 15:27:47,2012-06-11 09:36:13,"Created by Kym Keogh from 50 Cariboo, Williams Lake","Updated by Kym Keogh from 50 Cariboo, Williams Lake",2012-06-01,""
"E289970","BATTLEMENT CK U/S OF ADIT","River, Stream, or Creek","","","","","51.108417","-123.351856","","Google Earth, Google Maps, or other Satellite Imagery","","","","1685","metre","",NA,2012-06-07 15:42:30,NA,"Created by Kym Keogh from 50 Cariboo, Williams Lake","",2012-06-07,""
"E289971","BATTLEMENT CK D/S OF ADIT","River, Stream, or Creek","","","","","51.108056","-123.3525","","Google Earth, Google Maps, or other Satellite Imagery","","","","","","",NA,2012-06-07 15:46:47,NA,"Created by Kym Keogh from 50 Cariboo, Williams Lake","",2012-06-07,""
"E289972","TASEKO R U/S OF BATTLEMENT CK","River, Stream, or Creek","","","","","51.1","-123.35","","Google Earth, Google Maps, or other Satellite Imagery","","","","","","",NA,2012-06-07 15:55:34,NA,"Created by Kym Keogh from 50 Cariboo, Williams Lake","",2012-06-07,""
"E289973","TASEKO R D/S OF BATTLEMENT CK","River, Stream, or Creek","","","","","51.1","-123.35","","Google Earth, Google Maps, or other Satellite Imagery","","","","","","",NA,2012-06-07 16:03:08,NA,"Created by Kym Keogh from 50 Cariboo, Williams Lake","",2012-06-07,""
"E289974","UPPER BATTLEMENT CK","River, Stream, or Creek","","","","","51.1","-123.35","","Google Earth, Google Maps, or other Satellite Imagery","","","","","","",NA,2012-06-07 16:05:01,NA,"Created by Kym Keogh from 50 Cariboo, Williams Lake","",2012-06-07,""
"E289975","HORSEFLY R ABOVE RAT CREEK","River, Stream, or Creek","","","","","52.402311","-121.432628","","Google Earth, Google Maps, or other Satellite Imagery","","","","752","metre","",NA,2012-06-07 16:15:38,NA,"Created by Kym Keogh from 50 Cariboo, Williams Lake","",2012-06-07,""
"E289989","HULDRA SILVER PE 105894 PORTAL DISCHARGES","Seepage or Seepage Pools","site was created as a discharge for the permit PE105894.","","","","49.41556","-121.06028","","Google Earth, Google Maps, or other Satellite Imagery","","","105894","","","",NA,2012-06-08 10:33:44,2015-10-07 13:19:21,"Created by Database Link for EMA from 80 Southern Region, Penticton","Updated by Robert Gibson from 80 Southern Region, Penticton",2012-06-08,""
"E290029","HML-SW CREEK 9 EAST DIVERSION","River, Stream, or Creek","Creek 9 tributary receiving runoff from TMF-3 east diversion.","","","","53.679315","-127.213163","","Geographic Positioning System (NAD83)","","","14483","","","",NA,2012-06-11 09:41:51,2012-06-11 13:34:52,"Created by Julia Kokelj from 60 Skeena","Updated by Julia Kokelj from 60 Skeena",2012-06-11,""
"E290030","HML-SW CREEK 9 STATION H9","River, Stream, or Creek","Huckleberry Mine receiving site TMF-3. Creek 9 Main stem.","","","","53.681048","-127.22871","","Geographic Positioning System (NAD83)","","","14483","","","",NA,2012-06-11 13:21:08,NA,"Created by Julia Kokelj from 60 Skeena","",2012-06-11,""
"E290031","HML-SW CREEK 9 R4","River, Stream, or Creek","Huckleberry Mine receiving site TMF-3. Creek 9 mid upper reach..","","","","53.678191","-127.228981","","Geographic Positioning System (NAD83)","","","14483","","","",NA,2012-06-11 13:27:12,2012-06-11 13:31:17,"Created by Julia Kokelj from 60 Skeena","Updated by Julia Kokelj from 60 Skeena",2012-06-11,""
"E290032","HML-SW POND 9A","River, Stream, or Creek","Huckleberry Mine receiving site TMF-3. Pond within Creek 9 watershed.","","","","53.681793","-127.231573","","Geographic Positioning System (NAD83)","","","14483","","","",NA,2012-06-11 17:02:17,2012-06-11 17:04:00,"Created by regan fielding from 60 Skeena","Updated by regan fielding from 60 Skeena",2012-06-11,""
"E290033","HML-SW CREEK 9-R2","River, Stream, or Creek","Huckleberry Mine receiving site TMF-3. Creek 9 lower reach 2.","","","","53.681192","-127.22818","","Geographic Positioning System (NAD83)","","","14483","","","",NA,2012-06-11 17:07:15,2012-06-11 17:09:19,"Created by regan fielding from 60 Skeena","Updated by regan fielding from 60 Skeena",2012-06-11,""
"E290034","HML-SW CREEK 9-R1","River, Stream, or Creek","Huckleberry Mine receiving site TMF-3. Creek 9 lower reach 1.","","","","53.679113","-127.227965","","Geographic Positioning System (NAD83)","","","14483","","","",NA,2012-06-11 17:10:51,2012-06-11 17:12:08,"Created by regan fielding from 60 Skeena","Updated by regan fielding from 60 Skeena",2012-06-11,""
"E290035","HML-SW TAHTSA REACH","River, Stream, or Creek","Huckleberry Mine receiving site TMF-3. Tahtsa Reach at outlet of Creek 9.","","","","53.677456","-127.229187","","Geographic Positioning System (NAD83)","","","14483","","","",NA,2012-06-11 17:13:54,2012-06-11 17:14:50,"Created by regan fielding from 60 Skeena","Updated by regan fielding from 60 Skeena",2012-06-11,""
"E290036","HML-SW CREEK 8.5","River, Stream, or Creek","Huckleberry Mine receiving site TMF-3. Downstream of SC-7.","","","","53.680411","-127.239812","","Geographic Positioning System (NAD83)","","","14483","","","",NA,2012-06-11 17:16:47,2012-06-11 17:17:49,"Created by regan fielding from 60 Skeena","Updated by regan fielding from 60 Skeena",2012-06-11,""
"E290037","HML-SW CREEK 8-TRIB B","River, Stream, or Creek","Huckleberry Mine receiving site TMF-3. Downstream of SC-6.","","","","53.689299","-127.24456","","Geographic Positioning System (NAD83)","","","14483","","","",NA,2012-06-11 17:19:19,2012-06-11 17:20:57,"Created by regan fielding from 60 Skeena","Updated by regan fielding from 60 Skeena",2012-06-11,""
"E290038","HML-SW CREEK 8-TRIB C","River, Stream, or Creek","Huckleberry Mine receiving site TMF-3. Northwest of TMF-3 west abutment.","","","","53.692659","-127.241121","","Geographic Positioning System (NAD83)","","","14483","","","",NA,2012-06-11 17:22:28,2012-06-11 17:23:30,"Created by regan fielding from 60 Skeena","Updated by regan fielding from 60 Skeena",2012-06-11,""
"E290039","HML-SW SL5-PONDA-INLET","River, Stream, or Creek","Huckleberry Mine receiving site TMF-3. Sweeny Lake catchment north of TMF-3; north of topographic divide, although potential for groundwater seepage.","","","","53.695011","-127.224013","","Geographic Positioning System (NAD83)","","","14483","","","",NA,2012-06-11 17:27:20,2012-06-11 17:28:24,"Created by regan fielding from 60 Skeena","Updated by regan fielding from 60 Skeena",2012-06-11,""
"E290040","HML-SW SL5-PONDC-INLET","River, Stream, or Creek","Huckleberry Mine receiving site TMF-3. Sweeny Lake catchment north of TMF-3; north of topographic divide, although potential for groundwater seepage.","","","","53.691347","-127.213879","","Geographic Positioning System (NAD83)","","","14483","","","",NA,2012-06-11 17:30:08,NA,"Created by regan fielding from 60 Skeena","",2012-06-11,""
"E290041","HML-SW SL5-PONDC-OUTLET","River, Stream, or Creek","Huckleberry Mine receiving site TMF-3. Sweeny Lake catchment north of TMF-3; north of topographic divide, although potential for groundwater seepage.","","","","53.692319","-127.212885","","Geographic Positioning System (NAD83)","","","14483","","","",NA,2012-06-11 17:33:17,2012-06-11 17:37:23,"Created by regan fielding from 60 Skeena","Updated by regan fielding from 60 Skeena",2012-06-11,""
"E290042","HML-SW SL5-PONDD-INLET","River, Stream, or Creek","Huckleberry Mine receiving site TMF-3. Sweeny Lake catchment north of TMF-3; north of topographic divide, although potential for groundwater seepage.","","","","53.696544","-127.231908","","Geographic Positioning System (NAD83)","","","14483","","","",NA,2012-06-11 17:35:56,NA,"Created by regan fielding from 60 Skeena","",2012-06-11,""
"E290049","400 HAT CREEK MW SHALLOW","Well","Nested well with Obs Well 400. 400 HAT CREEK Monitoring Well SHALLOW, samples collected near the top of the aquifer, Unconfined Aq 134 lA, near confluence of Bonaparte River & Hat Creek.","","","","50.886097","-121.404013","","Geographic Positioning System (NAD83)","","","","","","",NA,2012-06-12 11:25:33,2020-04-03 15:25:24,"Created by Laurie Lyons from 30 Southern Region, Kamloops","Updated by Laurie Lyons from 30 Southern Region, Kamloops",2012-06-12,""
"E290050","NOX BUBBLE","Stack","","","","","56.9","-121.48","","Geographic Positioning System (NAD83)","","","106241","","","",NA,2012-06-12 14:25:11,2012-06-14 16:36:10,"Created by Database Link for EMA from 71 Omineca Peace, Oil and Gas Commission","Updated by  EMS from 71 Omineca Peace, Oil and Gas Commission",2012-06-12,""
"E290051","SOX BUBBLE","Stack","","","","","56.9","-121.48","","Geographic Positioning System (NAD83)","","","106241","","","",NA,2012-06-12 14:30:54,2012-06-14 16:36:09,"Created by Database Link for EMA from 72 Omineca-Peace, Fort St. John","Updated by  EMS from 72 Omineca-Peace, Fort St. John",2012-06-12,""
"E290052","HIGHWAY CK NW CULVERT","Ditch or Culvert","At Highway Creek on Hwy 97C, on north side of highway walk east ~250 m to culvert. Sample drainage from culvert.","","","","49.909528","-120.077806","","IMAP- 1:20,000 TRIM (NAD83)","","","","1450","metre","",NA,2012-06-12 14:43:19,2013-11-04 09:57:48,"Created by Bob Grace from 30 Southern Region, Kamloops","Updated by Bob Grace from 30 Southern Region, Kamloops",2012-06-12,""
"E290069","FORMERCRAWFORD BAY HIGHWAYS YARD EFFLUENT DISCHARGE","River, Stream, or Creek","","","","","49.68235","-116.8541","","Differential Geographic Positioning System (NAD83)","","","105212","","","",NA,2012-06-13 11:46:51,2012-06-14 16:36:09,"Created by Database Link for EMA from 20 Lower Mainland, Surrey","Updated by  EMS from 20 Lower Mainland, Surrey",2012-06-13,""
"E290070","FORMER CRAWFORD BAY HIGHWAYS YARD","River, Stream, or Creek","","","","","49.68235","-116.8541","","Geographic Positioning System (NAD83)","","","105212","","","",NA,2012-06-13 13:11:23,2012-06-14 16:36:10,"Created by Database Link for EMA from 20 Lower Mainland, Surrey","Updated by  EMS from 20 Lower Mainland, Surrey",2012-06-13,""
"E290089","FALLS RIVER 200M U/S PELLAIRE MINING CAMP","River, Stream, or Creek","Falls River sampled 200 meters upstream of Pellaire Mining Camp. Comments: Was 52; -122.  Updated to 51.106677; -123.618306 marking Falls River about 200m upstream of Pellaire Mining Camp and upstream of the major stream the flows into Falls River across from the mining camp.  (RG)","","","","51.106677","-123.618306","","Google Earth, Google Maps, or other Satellite Imagery","","","","","","",NA,2012-06-14 20:45:29,2019-08-21 13:02:44,"Created by Kym Keogh from 50 Cariboo, Williams Lake","Updated by Robert Gibson from 50 Cariboo, Williams Lake",2012-06-14,""
"E290090","FALLS RIVER 200 M D/S PELLAIRE MINING CAMP","River, Stream, or Creek","Falls River sampled 200 meters downstream of Pellaire Mining Camp. Comments: Was 52; -122.  Updated to 51.111229; -123.609390 marking Falls River about 200m down stream of Pellaire Mining Camp and downstream of the major stream the flows into Falls River across from the mining camp. (RG)","","","","51.111229","-123.60939","","Google Earth, Google Maps, or other Satellite Imagery","","","","","","",NA,2012-06-14 20:46:22,2019-08-21 13:02:51,"Created by Kym Keogh from 50 Cariboo, Williams Lake","Updated by Robert Gibson from 50 Cariboo, Williams Lake",2012-06-14,""
"E290109","REGIONAL DISTRICT OF NORTH OKANAGAN - MABEL LAKE COMMUNITY SEWER - DS WELL","Well","MW 11-01; Replacement monitoring wells. See 2011 Annual Report. Located in a downgradient direction to the Zone 1 and 2 of the septic fields.Ground elevation 436.4 masl, Depth to water level 26.0 mbtc, Well depth 32 mbtc.","","","","50.605549","-118.734704","","Geographic Positioning System (NAD83)","","","14490","","","",NA,2012-06-18 11:46:01,2020-07-16 16:30:28,"Created by Gerri Huggins from 80 Southern Region, Penticton","Updated by KRISTINA MOSELEY from 80 Southern Region, Penticton",2012-06-18,""
"E290110","REGIONAL DISTRICT OF NORTH OKANAGAN - MABEL LAKE COMMUNITY SEWER - MW11-02","Well","Replacement monitoring wells. See 2011 Annual Report. Located upgradient of the septic field. Ground elevation 447.3 masl, Depth to water level 19.2 mbtc, Water level elevation 428.1 masl, Well depth 24.7 mbtc.","","","","50.611745","-118.729971","","Geographic Positioning System (NAD83)","","","14490","","","",NA,2012-06-18 11:52:54,NA,"Created by Gerri Huggins from 80 Southern Region, Penticton","",2012-06-18,""
"E290111","REGIONAL DISTRICT OF NORTH OKANAGAN - MABEL LAKE COMMUNITY SEWER MW11-03","Well","Replacement monitoring wells. See 2011 Annual Report. Located downgradient of zone 3. Ground elevation 437.2 masl, Depth to water level 25.8 mbtc, Water level elevation 412.2 masl, Well depth 30.5 mbtc.","","","","50.606139","-118.730161","","Geographic Positioning System (NAD83)","","","14490","","","",NA,2012-06-18 11:56:28,NA,"Created by Gerri Huggins from 80 Southern Region, Penticton","",2012-06-18,""
"E290112","1104 KW WAUKESHA L7042GL COMPRESSOR ENGINES","Stack","","","","","57.11","-122.43","","Geographic Positioning System (NAD83)","","","106224","","","",NA,2012-06-18 13:46:49,2012-06-21 15:55:44,"Created by Database Link for EMA from 72 Omineca-Peace, Fort St. John","Updated by  EMS from 72 Omineca-Peace, Fort St. John",2012-06-18,""
"E290113","1081 KW WAUKESHA L5794LT COMPRESSOR ENGINES","Stack","","","","","57.11","-122.43","","Differential Geographic Positioning System (NAD83)","","","106224","","","",NA,2012-06-18 14:00:41,2012-06-21 15:55:44,"Created by Database Link for EMA from 71 Omineca Peace, Oil and Gas Commission","Updated by  EMS from 71 Omineca Peace, Oil and Gas Commission",2012-06-18,""
"E290114","125 KW GM 8.1 L TURBO NATURAL GAS GENERATORS","Stack","","","","","57.11","-122.43","","Geographic Positioning System (NAD83)","","","106224","","","",NA,2012-06-18 14:16:40,2012-06-21 15:55:44,"Created by Database Link for EMA from 72 Omineca-Peace, Fort St. John","Updated by  EMS from 72 Omineca-Peace, Fort St. John",2012-06-18,""
"E290115","125 KW GM 8.1 L TURBO NATURAL GAS GENERATOR (BACKUP ONLY)","Stack","","","","","57.11","-122.43","","Geographic Positioning System (NAD83)","","","106224","","","",NA,2012-06-18 14:20:39,2012-06-21 15:55:44,"Created by Database Link for EMA from 71 Omineca Peace, Oil and Gas Commission","Updated by  EMS from 71 Omineca Peace, Oil and Gas Commission",2012-06-18,""
"E290116","600 KW MITSUBISHI S6R-Y2PTAW-1 DIESEL GENERATOR","Stack","","","","","57.11","-122.43","","Geographic Positioning System (NAD83)","","","106224","","","",NA,2012-06-18 14:53:06,2012-06-21 15:55:44,"Created by Database Link for EMA from 71 Omineca Peace, Oil and Gas Commission","Updated by  EMS from 71 Omineca Peace, Oil and Gas Commission",2012-06-18,""
"E290129","DEHYDRATOR GLYCOL REGENERATORS","Stack","","","","","57.11","-122.43","","Geographic Positioning System (NAD83)","","","106224","","","",NA,2012-06-19 08:39:06,2012-06-21 15:55:44,"Created by Database Link for EMA from 71 Omineca Peace, Oil and Gas Commission","Updated by  EMS from 71 Omineca Peace, Oil and Gas Commission",2012-06-19,""
"E290130","LP FLARE STACK","Stack","","","","","57.11","-122.43","","Geographic Positioning System (NAD83)","","","106224","","","",NA,2012-06-19 08:50:02,2012-06-21 15:55:43,"Created by Database Link for EMA from 71 Omineca Peace, Oil and Gas Commission","Updated by  EMS from 71 Omineca Peace, Oil and Gas Commission",2012-06-19,""
"E290131","HP FLARE STACK","Stack","","","","","57.11","-122.43","","Geographic Positioning System (NAD83)","","","106224","","","",NA,2012-06-19 08:57:55,2012-06-21 15:55:45,"Created by Database Link for EMA from 71 Omineca Peace, Oil and Gas Commission","Updated by  EMS from 71 Omineca Peace, Oil and Gas Commission",2012-06-19,""
"E290132","ACCUMULATED SURFACE PRECIPITATION","Stack","","","","","57.11","-122.43","","Geographic Positioning System (NAD83)","","","106224","","","",NA,2012-06-19 10:30:49,2012-06-21 15:55:44,"Created by Database Link for EMA from 71 Omineca Peace, Oil and Gas Commission","Updated by  EMS from 71 Omineca Peace, Oil and Gas Commission",2012-06-19,""
"E290149","KENNAMETAL THERMAL EVAPORATOR STACK (LANGFORD)","Stack","A cobminted stack of a wastewater thermal evaporator and a natural gas boiler","","","","48.4423","-123.507","","Google Earth, Google Maps, or other Satellite Imagery","","","106055","102","metre","",NA,2012-06-20 11:45:30,2012-06-21 15:55:45,"Created by Database Link for EMA from 10 Vancouver Island, Nanaimo","Updated by  EMS from 10 Vancouver Island, Nanaimo",2012-06-20,""
"E290150","BIRKETT CREEK UPSTREAM OF CONFLUENCE TO STUMBLES CREEK","River, Stream, or Creek","Tributary to Stumbles Creek, above Craigmont mill-site","","","","50.2022","-120.8902","","Google Earth, Google Maps, or other Satellite Imagery","","","11478","","","",NA,2012-06-20 16:28:05,NA,"Created by Brian Yamelst from 30 Southern Region, Kamloops","",2012-06-20,""
"E290151","CRAIGMONT 2400 PORTAL","Outfall","2400 Level portal drainage - Decommissioned mine","","","","50.1942","-120.896","","Google Earth, Google Maps, or other Satellite Imagery","","","11478","","","",NA,2012-06-20 16:32:41,2024-06-07 15:25:51,"Created by Brian Yamelst from 30 Southern Region, Kamloops","Updated by Robert Gibson from 30 Southern Region, Kamloops",2012-06-20,""
"E290152","STUMBLES CREEK DIVERSION","Ditch or Culvert","Below confluence with 2400 Portal drainage","","","","50.1917","-120.894","","Google Earth, Google Maps, or other Satellite Imagery","","","11478","","","",NA,2012-06-20 16:36:55,NA,"Created by Brian Yamelst from 30 Southern Region, Kamloops","",2012-06-20,""
"E290153","HULDRA LINED TSF SUPERNATANT","In-Plant","Supernatant from Lined Tailings Storage Facility located within historic mine unlined TSF","","","","50.196","-120.8883","","Google Earth, Google Maps, or other Satellite Imagery","","","11478","","","",NA,2012-06-20 16:40:34,NA,"Created by Brian Yamelst from 30 Southern Region, Kamloops","",2012-06-20,""
"E290154","STUMBLES CREEK TRIBUTARY BELOW MINE TSF","River, Stream, or Creek","Agricultural run-off based tributary, southeast of Craigmont Mine TSF","","","","50.175","-120.8774","","Google Earth, Google Maps, or other Satellite Imagery","","","11478","","","",NA,2012-06-20 16:44:18,NA,"Created by Brian Yamelst from 30 Southern Region, Kamloops","",2012-06-20,""
"E290155","MW-1 HULDRA TAILINGS FACILITY (HTF) GROUNDWATER WELL - PE 11478","Well","Groundwater monitoring well near lined Huldra Tailings Facility (HTF). 70m north of HTF. Installed 2012.","","","","50.198076","-120.886993","","Google Earth, Google Maps, or other Satellite Imagery","","","11478","","","",NA,2012-06-20 16:47:53,2024-07-25 14:08:38,"Created by Brian Yamelst from 30 Southern Region, Kamloops","Updated by Olivia Da Silva from 30 Southern Region, Kamloops",2012-06-20,""
"E290156","BIOMASS DRYERS","In-Plant","Biomass Dryers","","","","55.339","-123.182","","Google Earth, Google Maps, or other Satellite Imagery","","","3647","","","",NA,2012-06-20 19:31:28,2012-06-21 15:55:45,"Created by Database Link for EMA from 70 Omineca-Peace, Prince George","Updated by  EMS from 70 Omineca-Peace, Prince George",2012-06-20,""
"E290157","PNEUMATIC CONVEYER BAGHOUSE","In-Plant","The authorized works are a pneumatic fuel conveyer, baghouse, ducting, fans, cyclone and related apprutenances","","","","55.339","-123.182","","Google Earth, Google Maps, or other Satellite Imagery","","","3647","","","",NA,2012-06-20 19:41:25,2019-06-10 16:21:01,"Created by Database Link for EMA from 70 Omineca-Peace, Prince George","Updated by Database Link for EMA from 70 Omineca-Peace, Prince George",2012-06-20,""
"E290158","COOLING TOWERS","In-Plant","Twin Cooling Towers","","","","55.339","-123.182","","Google Earth, Google Maps, or other Satellite Imagery","","","","","","",NA,2012-06-20 19:46:16,2012-06-21 15:55:45,"Created by Database Link for EMA from 70 Omineca-Peace, Prince George","Updated by  EMS from 70 Omineca-Peace, Prince George",2012-06-20,""
"E290159","COOLING TOWERS 2","In-Plant","Cooling Towers","","","","55.339","-123.182","","Google Earth, Google Maps, or other Satellite Imagery","","","","","","",NA,2012-06-20 19:58:57,2012-06-21 15:55:45,"Created by Database Link for EMA from 70 Omineca-Peace, Prince George","Updated by  EMS from 70 Omineca-Peace, Prince George",2012-06-20,""
"E290160","SEWAGE TREATMENT","In-Plant","In plant sewage treatment plant discharging to combined effluent","","","","55.339","-123.182","","Google Earth, Google Maps, or other Satellite Imagery","","","1174","","","",NA,2012-06-20 20:24:07,2012-06-21 15:55:45,"Created by Database Link for EMA from 70 Omineca-Peace, Prince George","Updated by  EMS from 70 Omineca-Peace, Prince George",2012-06-20,""
"E290170","OBS WELL 416","Well","Lineham Rd. and 275 Rd. in Groundbirch near Dawson Creek.","","","","55.82535","-120.97591","","Geographic Positioning System (NAD83)","","","","771","metre","",NA,2012-06-21 09:25:09,2012-06-21 09:33:34,"Created by   from 70 Omineca-Peace, Prince George","Updated by   from 70 Omineca-Peace, Prince George",2012-06-21,"TRUE"
"E290171","OBS WELL 417","Well","267 Rd. and 214 Rd., in Groundbirch near Dawson Creek.","","","","55.833503","-120.87099","","Geographic Positioning System (NAD83)","","","","725","metre","",NA,2012-06-21 09:26:51,2012-06-21 09:34:06,"Created by   from 70 Omineca-Peace, Prince George","Updated by   from 70 Omineca-Peace, Prince George",2012-06-21,"TRUE"
"E290172","OBS WELL 418","Well","235 Rd. and Sweetwater Rd., in Groundbirch near Dawson Creek.","","","","55.90993","-120.453375","","Geographic Positioning System (NAD83)","","","","697","metre","",NA,2012-06-21 09:28:17,2012-06-21 09:34:31,"Created by   from 70 Omineca-Peace, Prince George","Updated by   from 70 Omineca-Peace, Prince George",2012-06-21,"TRUE"
"E290173","OBS WELL 419","Well","217 Rd. and Sweetwater Rd., in Groundbirch near Dawson Creek.","","","","55.888852","-120.218581","","Geographic Positioning System (NAD83)","","","","704","metre","",NA,2012-06-21 09:29:35,2012-06-21 09:35:00,"Created by   from 70 Omineca-Peace, Prince George","Updated by   from 70 Omineca-Peace, Prince George",2012-06-21,"TRUE"
"E290174","OBS WELL 420","Well","229 Rd. and 212 Rd., in Groundbirch near Dawson Creek.","","","","55.80949","-120.379814","","Geographic Positioning System (NAD83)","","","","771","metre","",NA,2012-06-21 09:31:02,2012-06-21 09:35:35,"Created by   from 70 Omineca-Peace, Prince George","Updated by   from 70 Omineca-Peace, Prince George",2012-06-21,"TRUE"
"E290176","OBS WELL 421","Well","273 Rd. and 208 Rd., in Groundbirch near Dawson Creek. Deeper of 2 wells at this location.","","","","55.752974","-120.949079","","Geographic Positioning System (NAD83)","","","","704","metre","",NA,2012-06-21 09:32:13,2013-01-18 15:13:09,"Created by   from 70 Omineca-Peace, Prince George","Updated by   from 70 Omineca-Peace, Prince George",2012-06-21,"TRUE"
"E290177","SONA RESOURCES ELIZABETH MINE SW PORTAL","Ditch or Culvert","mine water discharge to ground","","","","51.03333","-122.5552","","Geographic Positioning System (NAD83)","","","","","","",NA,2012-06-21 10:52:20,2012-06-21 15:55:45,"Created by Database Link for EMA from 30 Southern Region, Kamloops","Updated by  EMS from 30 Southern Region, Kamloops",2012-06-21,""
"E290189","PORTAL 2  (B2) HULDRA SILVER","Seepage or Seepage Pools","","","","","49.41783","-121.06039","","Google Earth, Google Maps, or other Satellite Imagery","","","105894","","","",NA,2012-06-21 14:58:14,NA,"Created by Mike Reiner from 80 Southern Region, Penticton","",2012-06-21,""
"E290209","PR-105241 COAST ENVIRONMENTAL TREATED SOIL DISCHARGE TO GROUND","Landfill","9401 Trans Canada Highway, Chemainus. Dishcharge into wood waste excavation.","","","","48.912053","-123.733611","","Google Earth, Google Maps, or other Satellite Imagery","","","6858; 105241","","","",NA,2012-06-25 13:30:59,NA,"Created by Rosie Barlak from 10 Vancouver Island, Nanaimo","",2012-06-25,""
"E290210","106255 KNELSEN ROCK PRODUCTS LTD.","Stack","Mobile Asphalt Plant","","","","50","-120","","Google Earth, Google Maps, or other Satellite Imagery","","","","","","",NA,2012-06-25 15:52:46,2012-06-28 15:51:24,"Created by Database Link for EMA from 70 Omineca-Peace, Prince George","Updated by  EMS from 70 Omineca-Peace, Prince George",2012-06-25,""
"E290230","SILVER QUEEN - WRINCH CR (NEAR ADIT2880)","River, Stream, or Creek","Auth#44500-45Location is at the SW end of Wrinch Canyon upstream of Silver Queen camp well accessed from the Silver Queen mine property. (Confirm Adit2880 location with Ellen Clements). 2012 sample Req#50191989","","","","54.08604","-126.73182","","Geographic Positioning System (NAD83)","","","","847","metre","",NA,2012-06-26 10:48:36,2012-06-26 13:55:12,"Created by Lisa Torunski from 60 Skeena","Updated by Lisa Torunski from 60 Skeena",2012-06-26,""
"E290231","SILVER QUEEN - WRINCH CR @ CANYON MOUTH","River, Stream, or Creek","Auth#44500-45Location sampled is 37m downstream of Wrinch at ADIT2880 site. Here the creek went subsurface June 25, 2012  Req#50191990","","","","54.08617","-126.73235","","Geographic Positioning System (NAD83)","","","","821","metre","",NA,2012-06-26 11:26:09,2012-06-26 13:55:41,"Created by Lisa Torunski from 60 Skeena","Updated by Lisa Torunski from 60 Skeena",2012-06-26,""
"E290233","SILVER QUEEN - WASTE ROCK PILE SEEPAGE","Seepage or Seepage Pools","Auth#44500-45Location sampled is south of waste rock piles found south-east of Sea Can camp buildings.   Req#50192028","","","","54.08284","-126.73488","","Geographic Positioning System (NAD83)","","","","786","metre","",NA,2012-06-26 12:16:44,NA,"Created by Lisa Torunski from 60 Skeena","",2012-06-26,""
"E290234","SILVER QUEEN - WRINCH CREEK NEAR OWEN LAKE","River, Stream, or Creek","Auth#44500-45Location sampled is Wrinch Creek near Owen Lake. Access is through gated rd across the Morice Owen FSR from mine property. Distance to site is aprox. 1km walk along edge of the height of land on west side of stream 2012 Req#50192029","","","","54.07504","-126.74284","","Geographic Positioning System (NAD83)","","","","786","metre","",NA,2012-06-26 12:57:26,2012-06-26 13:58:12,"Created by Lisa Torunski from 60 Skeena","Updated by Lisa Torunski from 60 Skeena",2012-06-26,""
"E290235","SILVER QUEEN - WRINCH CREEK BELOW MORICE OWEN FSR CULVERT","River, Stream, or Creek","Auth#44500-45Location sampled is at culvert outlet.  2012 Req#50192030","","","","54.0806","-126.736816","","Geographic Positioning System (NAD83)","","","","774","metre","",NA,2012-06-26 13:47:59,2012-06-26 13:58:30,"Created by Lisa Torunski from 60 Skeena","Updated by Lisa Torunski from 60 Skeena",2012-06-26,""
"E290236","SILVER QUEEN - WRINCH CREEK ABOVE MORICE OWEN FSR CULVERT","River, Stream, or Creek","Auth#44500-45Location sampled is near culvert inle. 2012 Req#50192031","","","","54.08081","-126.7366","","Geographic Positioning System (NAD83)","","","","775","metre","",NA,2012-06-26 13:52:06,2012-06-26 13:58:48,"Created by Lisa Torunski from 60 Skeena","Updated by Lisa Torunski from 60 Skeena",2012-06-26,""
"E290249","ONE (1) 586 KW STABILIZER REBOILER (Z630)","Stack","","","","","56.35","-122.05","","Geographic Positioning System (NAD83)","","","105870","","","",NA,2012-06-27 13:56:46,2012-06-28 15:51:24,"Created by Database Link for EMA from 71 Omineca Peace, Oil and Gas Commission","Updated by  EMS from 71 Omineca Peace, Oil and Gas Commission",2012-06-27,""
"E290270","RED CHRIS STP","Outfall","STP discharge to wetlands and snowmaking","","","","57.72","-129.76","","Geographic Positioning System (NAD83)","","","106004","","","",NA,2012-07-03 13:09:22,2012-07-05 15:46:24,"Created by Database Link for EMA from 60 Skeena","Updated by  EMS from 60 Skeena",2012-07-03,""
"E290289","REFINERY NO 1 SILVER BAGHOUSE STACK","Stack","Refinery No 1 Silver Baghouse Stack","","","","49.103333","-117.716389","","Geographic Positioning System (NAD83)","","","2691","20.9","metre","",NA,2012-07-05 09:56:12,2012-07-05 15:46:24,"Created by Database Link for EMA from 40 Kootenay, Nelson","Updated by  EMS from 40 Kootenay, Nelson",2012-07-05,""
"E290309","COUGAR NORTH HIGHWALL AMBIENT STATION; GREENHILLS","Air Quality","","","","","50.143428","-114.762392","","Geographic Positioning System (NAD83)","","","","2085","metre","",NA,2012-07-10 11:56:21,2012-07-10 12:02:45,"Created by Robert Gibson from 41 Kootenay, Cranbrook","Updated by  EMS from 41 Kootenay, Cranbrook",2012-07-10,""
"E290310","ELKFORD ROCKY MOUNTAIN ELEMENTARY SCHOOL; ELKFORD","Air Quality","","","","","50.007794","-114.933425","","Geographic Positioning System (NAD83)","","","","1335","metre","",NA,2012-07-10 11:58:10,2023-01-26 16:03:16,"Created by Robert Gibson from 41 Kootenay, Cranbrook","Updated by Ben Barton from 41 Kootenay, Cranbrook",2012-07-10,""
"E290311","WAUKESHA COMPRESSOR DRIVE UNITS","Stack","","","","","54.42","-122.21","","Geographic Positioning System (NAD83)","","","106274","","","",NA,2012-07-10 14:58:27,NA,"Created by Database Link for EMA from 72 Omineca-Peace, Fort St. John","",2012-07-10,""
"E290312","GM 8.1 L GENERATORS","Stack","","","","","54.42","-122.21","","Geographic Positioning System (NAD83)","","","106274","","","",NA,2012-07-10 15:46:12,NA,"Created by Database Link for EMA from 72 Omineca-Peace, Fort St. John","",2012-07-10,""
"E290313","125 KW GM 8.1 L GENERATOR","Stack","","","","","54.42","-122.21","","Geographic Positioning System (NAD83)","","","106274","","","",NA,2012-07-10 15:54:24,2012-07-12 16:10:47,"Created by Database Link for EMA from 71 Omineca Peace, Oil and Gas Commission","Updated by  EMS from 71 Omineca Peace, Oil and Gas Commission",2012-07-10,""
"E290314","600 KW MITSUBISHI DIESEL GENERATOR","Stack","","","","","54.42","-122.21","","Geographic Positioning System (NAD83)","","","106274","","","",NA,2012-07-10 16:04:49,2012-07-12 16:10:46,"Created by Database Link for EMA from 71 Omineca Peace, Oil and Gas Commission","Updated by  EMS from 71 Omineca Peace, Oil and Gas Commission",2012-07-10,""
"E290315","200 KW GLYCOL DEHYDRATOR REGENERATORS","Stack","","","","","54.42","-122.21","","Geographic Positioning System (NAD83)","","","106274","","","",NA,2012-07-10 16:08:39,2012-07-12 16:10:47,"Created by Database Link for EMA from 72 Omineca-Peace, Fort St. John","Updated by  EMS from 72 Omineca-Peace, Fort St. John",2012-07-10,""
"E290316","HP FLARE STACK","Stack","","","","","54.42","-122.21","","Geographic Positioning System (NAD83)","","","106274","","","",NA,2012-07-10 16:12:14,2012-07-12 16:10:46,"Created by Database Link for EMA from 72 Omineca-Peace, Fort St. John","Updated by  EMS from 72 Omineca-Peace, Fort St. John",2012-07-10,""
"E290317","LP FLARE STACK","Stack","","","","","54.42","-122.21","","Geographic Positioning System (NAD83)","","","106274","","","",NA,2012-07-10 16:15:38,2012-07-12 16:10:46,"Created by Database Link for EMA from 72 Omineca-Peace, Fort St. John","Updated by  EMS from 72 Omineca-Peace, Fort St. John",2012-07-10,""
"E290329","ACCUMULATED SURFACE PRECIP","In-Plant","","","","","54.42","-122.21","","Geographic Positioning System (NAD83)","","","106274","","","",NA,2012-07-11 09:39:11,2012-07-12 16:10:46,"Created by Database Link for EMA from 71 Omineca Peace, Oil and Gas Commission","Updated by  EMS from 71 Omineca Peace, Oil and Gas Commission",2012-07-11,""
"E290349","17 569 KW HEAT MEDIUM HEATERS","Stack","","","","","59.22","-121.67","","Geographic Positioning System (NAD83)","","","106282","","","",NA,2012-07-12 08:25:41,2012-07-12 16:10:46,"Created by Database Link for EMA from 71 Omineca Peace, Oil and Gas Commission","Updated by  EMS from 71 Omineca Peace, Oil and Gas Commission",2012-07-12,""
"E290350","7320 KW UTILITY HEAT MEDIUM HEATER (F-1721)","Stack","","","","","59.22","-121.67","","Geographic Positioning System (NAD83)","","","106282","","","",NA,2012-07-12 09:00:49,2012-07-12 16:10:47,"Created by Database Link for EMA from 71 Omineca Peace, Oil and Gas Commission","Updated by  EMS from 71 Omineca Peace, Oil and Gas Commission",2012-07-12,""
"E290351","1880 KW CATERPILLAR DIESEL GENERATOR (BACK UP ONLY)","Stack","","","","","59.22","-121.67","","Geographic Positioning System (NAD83)","","","106282","","","",NA,2012-07-12 11:01:44,2012-07-12 16:10:47,"Created by Database Link for EMA from 71 Omineca Peace, Oil and Gas Commission","Updated by  EMS from 71 Omineca Peace, Oil and Gas Commission",2012-07-12,""
"E290352","8440 KW WARTSILA GENERATOR","Stack","","","","","59.22","-121.67","","Geographic Positioning System (NAD83)","","","106282","","","",NA,2012-07-12 11:10:17,2012-07-12 16:10:47,"Created by Database Link for EMA from 71 Omineca Peace, Oil and Gas Commission","Updated by  EMS from 71 Omineca Peace, Oil and Gas Commission",2012-07-12,""
"E290353","DEHYDRATOR REBOILER","Stack","","","","","59.22","-121.67","","Geographic Positioning System (NAD83)","","","106282","","","",NA,2012-07-12 11:27:34,NA,"Created by Database Link for EMA from 71 Omineca Peace, Oil and Gas Commission","",2012-07-12,""
"E290354","878 KW DEHYDRATOR REBOILER","Stack","","","","","59.22","-121.67","","Geographic Positioning System (NAD83)","","","","","","",NA,2012-07-12 11:30:44,2012-07-12 16:10:47,"Created by Database Link for EMA from 71 Omineca Peace, Oil and Gas Commission","Updated by  EMS from 71 Omineca Peace, Oil and Gas Commission",2012-07-12,""
"E290355","HP/LP FLARE STACK","Stack","","","","","59.22","-121.67","","Geographic Positioning System (NAD83)","","","106282","","","",NA,2012-07-12 11:34:22,2012-07-12 16:10:47,"Created by Database Link for EMA from 72 Omineca-Peace, Fort St. John","Updated by  EMS from 72 Omineca-Peace, Fort St. John",2012-07-12,""
"E290356","CO2 VENT STACK","Stack","","","","","59.22","-121.67","","Geographic Positioning System (NAD83)","","","106282","","","",NA,2012-07-12 11:37:43,2012-07-12 16:10:47,"Created by Database Link for EMA from 71 Omineca Peace, Oil and Gas Commission","Updated by  EMS from 71 Omineca Peace, Oil and Gas Commission",2012-07-12,""
"E290357","WASTE INCINERATOR","Stack","","","","","59.22","-121.67","","Geographic Positioning System (NAD83)","","","106282","","","",NA,2012-07-12 11:40:08,2012-07-12 16:10:47,"Created by Database Link for EMA from 71 Omineca Peace, Oil and Gas Commission","Updated by  EMS from 71 Omineca Peace, Oil and Gas Commission",2012-07-12,""
"E290358","LIGHT CREEK TRIBUTARY ABOVE CLEAR LAKE AND MINE CREEK ZONE","River, Stream, or Creek","NW of Selkirk E-Zone Adit","","","","51.774","-118.9194","","Google Earth, Google Maps, or other Satellite Imagery","","","","","","",NA,2012-07-12 15:20:02,NA,"Created by Brian Yamelst from 30 Southern Region, Kamloops","",2012-07-12,""
"E290359","LAKELSE LAKE (GRUCHY`S BEACH) - EAST","Lake or Pond","Park at Gruchy`s Beach parking area and walk ~1 km trail to beach (follows west bank of Williams Creek). There is no swimming boom here, but use is obvious (vegetation and terrain). Sample in waist deep water at the easternmost (left) swimming access.","","","","54.414164","-128.537398","","Google Earth, Google Maps, or other Satellite Imagery","","","","","","",NA,2012-07-12 16:31:54,2017-07-13 13:41:42,"Created by Kara Przeczek from 60 Skeena","Updated by  EMS from 60 Skeena",2012-07-12,""
"E290360","LAKELSE LAKE (GRUCHY`S BEACH) - WEST","Lake or Pond","Park at Gruchy`s Beach parking area and walk ~1km trail to beach (follows west bank of Williams Creek). There is no swimming area boom here, but use is obvious (vegetation and terrain). Sample in waist deep water at the westernmost (right) swimming access","","","","54.413831","-128.535272","","Google Earth, Google Maps, or other Satellite Imagery","","","","","","",NA,2012-07-12 16:37:07,2017-07-13 13:41:42,"Created by Kara Przeczek from 60 Skeena","Updated by  EMS from 60 Skeena",2012-07-12,""
"E290361","LAKELSE LAKE (PICNIC BEACH) - NORTH","Lake or Pond","Lakelse Lake Provincial Park picnic site beach. Go to NORTH end of boom at swimming area. Walk along boom until chest deep to take sample. If lake level low, sample at max depth w/in boom.","","","","54.41379","-128.524962","","Google Earth, Google Maps, or other Satellite Imagery","","","","","","",NA,2012-07-12 16:41:21,NA,"Created by Kara Przeczek from 60 Skeena","",2012-07-12,""
"E290362","LAKELSE LAKE (PICNIC BEACH) - SOUTH","Lake or Pond","Lakelse Lake Provincial Park picnic site beach. Go to SOUTH end of boom at swimming area. Walk along boom until chest deep to take sample. If lake level low, sample at max depth w/in boom.","","","","54.412507","-128.523285","","Google Earth, Google Maps, or other Satellite Imagery","","","","","","",NA,2012-07-12 16:42:59,NA,"Created by Kara Przeczek from 60 Skeena","",2012-07-12,""
"E290363","HUSKY OIL OPERATIONS LIMITED (106091)","Air Quality","","","","","53.966","-122.7654","","1:20,000 scale map (NAD83)","","","106091","","","",NA,2012-07-12 16:48:15,2012-07-25 13:52:53,"Created by Database Link for EMA from 90 Headquarters, Victoria","Updated by Robert Gibson from 90 Headquarters, Victoria",2012-07-12,""
"E290364","LAKELSE LAKE (FURLONG BEACH) - SOUTH","Lake or Pond","Beach at Furlong Bay Campground. Walk to SOUTH end of boom at swimming area (adjacent to public boat launch). Walk along boom until chest deep to take sample. If lake level is low, sample at max depth w/in boom.","","","","54.388596","-128.536235","","Google Earth, Google Maps, or other Satellite Imagery","","","","","","",NA,2012-07-12 16:48:42,NA,"Created by Kara Przeczek from 60 Skeena","",2012-07-12,""
"E290369","DISPOSAL WELL","Well","Deepwell disposal","","","","55.817","-120.133","","Google Earth, Google Maps, or other Satellite Imagery","","","103980","","","",NA,2012-07-17 14:06:32,2012-07-25 13:52:50,"Created by Database Link for EMA from 72 Omineca-Peace, Fort St. John","Updated by Robert Gibson from 72 Omineca-Peace, Fort St. John",2012-07-17,""
"E290370","DISPOSAL WELL 3","Well","Deepwell disposal","","","","55.7964","-120.1967","","Geographic Positioning System (NAD83)","","","103980","","","",NA,2012-07-17 14:59:07,2012-07-25 13:52:50,"Created by Database Link for EMA from 72 Omineca-Peace, Fort St. John","Updated by Robert Gibson from 72 Omineca-Peace, Fort St. John",2012-07-17,""
"E290389","WILDROSE BAY SPRAY IRRIGATION","Irrigation Spray/Sludge","Spray irrigation of wastewater effluent","","","","50.946167","-119.110306","","Geographic Positioning System (NAD83)","","","18169","","","",NA,2012-07-18 09:37:20,2012-07-25 13:52:53,"Created by Database Link for EMA from 30 Southern Region, Kamloops","Updated by Robert Gibson from 30 Southern Region, Kamloops",2012-07-18,""
"E290390","A11 RUNOFF DISCHARGE","In-Plant","","","","","55.817","-120.13","","Google Earth, Google Maps, or other Satellite Imagery","","","103980","","","",NA,2012-07-18 14:57:20,2012-07-25 13:52:50,"Created by Database Link for EMA from 72 Omineca-Peace, Fort St. John","Updated by Robert Gibson from 72 Omineca-Peace, Fort St. John",2012-07-18,""
"E290391","B11-4 RUNOFF DISCHARGE","In-Plant","","","","","55.817","-120.133","","Google Earth, Google Maps, or other Satellite Imagery","","","103980","","","",NA,2012-07-18 15:05:08,2012-07-25 13:52:53,"Created by Database Link for EMA from 72 Omineca-Peace, Fort St. John","Updated by Robert Gibson from 72 Omineca-Peace, Fort St. John",2012-07-18,""
"E290392","4-36 RUNOFF DISCHARGE","In-Plant","","","","","55.7964","-120.1967","","Geographic Positioning System (NAD83)","","","103980","","","",NA,2012-07-18 15:09:31,2012-07-25 13:52:51,"Created by Database Link for EMA from 72 Omineca-Peace, Fort St. John","Updated by Robert Gibson from 72 Omineca-Peace, Fort St. John",2012-07-18,""
"E290393","LP FLARE STACK","Stack","","","","","55.236","-120.1434","","Google Earth, Google Maps, or other Satellite Imagery","","","103980","","","",NA,2012-07-18 16:04:12,2012-07-25 13:52:51,"Created by Database Link for EMA from 72 Omineca-Peace, Fort St. John","Updated by Robert Gibson from 72 Omineca-Peace, Fort St. John",2012-07-18,""
"E290409","TREATER","Stack","","","","","55.8235","-120.1425","","Geographic Positioning System (NAD83)","","","103980","","","",NA,2012-07-19 10:24:34,2012-07-25 13:52:52,"Created by Database Link for EMA from 72 Omineca-Peace, Fort St. John","Updated by Robert Gibson from 72 Omineca-Peace, Fort St. John",2012-07-19,""
"E290410","BOILER STACK","Stack","","","","","55.8235","-120.1425","","Geographic Positioning System (NAD83)","","","103980","","","",NA,2012-07-19 10:40:31,2012-07-25 13:52:52,"Created by Database Link for EMA from 72 Omineca-Peace, Fort St. John","Updated by Robert Gibson from 72 Omineca-Peace, Fort St. John",2012-07-19,""
"E290449","EAST FRASER FIBER-PRIMARY CYCLONE","Stack","","","","","55.99833","-124.0058","","Geographic Positioning System (NAD83)","","","105808","","","",NA,2012-07-25 08:55:20,NA,"Created by Database Link for EMA from 70 Omineca-Peace, Prince George","",2012-07-25,""
"E290450","EAST FRASER FIBRE-SECONDARY CYCLONE","Stack","","","","","55.99833","-124.0058","","Geographic Positioning System (NAD83)","","","","","","",NA,2012-07-25 09:05:35,NA,"Created by Database Link for EMA from 70 Omineca-Peace, Prince George","",2012-07-25,""
"E290451","EAST FRASER FIBER-BAGHOUSE","Stack","","","","","55.99833","-124.0058","","Geographic Positioning System (NAD83)","","","105808","","","",NA,2012-07-25 09:12:05,NA,"Created by Database Link for EMA from 70 Omineca-Peace, Prince George","",2012-07-25,""
"E290452","SHELLEY CREEK @ END OF BLOWER RD- RDN/ENV CWMN PROGRAM","River, Stream, or Creek","Going north on old island hwy, turn L of Shelly St which turns into Stanford Ave. Take another L onto Blower rd. Park at end. Take trail to creek.","","","","49.310586","-124.29988","","Google Earth, Google Maps, or other Satellite Imagery","","","","","","",NA,2012-07-25 16:03:12,2019-09-24 16:35:27,"Created by Rosie Barlak from 10 Vancouver Island, Nanaimo","Updated by Katy Fraser from 10 Vancouver Island, Nanaimo",2012-07-25,""
"E290469","DEPARTURE CREEK @ NEYLAND RD (STN1)- RDN/ENV CWMN PROGRAM","River, Stream, or Creek","Going towards water on Departure Bay rd, take R onto Neyland Rd, road crosses creek. Sample upstream of rd crossing.","","","","49.208496","-123.987366","","Google Earth, Google Maps, or other Satellite Imagery","","","","","","",NA,2012-07-26 09:28:19,2019-09-26 11:40:32,"Created by Rosie Barlak from 10 Vancouver Island, Nanaimo","Updated by Katy Fraser from 10 Vancouver Island, Nanaimo",2012-07-26,""
"E290470","DEPARTURE CREEK OFF NEWTON ST (STN2)- RDN/ENV CWMN PROGRAM","River, Stream, or Creek","Going towards water on Bay St, take L onto Newton Rd, continue past where rd crosses stream and park on edge of rd by wooded area on your right. Take trail down to creek.This site is sampled by Vancouver Island Univsersity (Stn2)","","","","49.20895","-123.982721","","Google Earth, Google Maps, or other Satellite Imagery","","","","","","",NA,2012-07-26 09:38:52,2019-09-26 11:41:01,"Created by Rosie Barlak from 10 Vancouver Island, Nanaimo","Updated by Katy Fraser from 10 Vancouver Island, Nanaimo",2012-07-26,""
"E290471","DEPARTURE CREEK AT LOWER END OF WOODSTREAM PARK (STN 3)- RDN/ENV CWMN PROG","River, Stream, or Creek","Going towards water on Bay St, park on LH side of road in Woodstream park parking lot. Take trail into park, walk about 200 m u/s to sample site. Site identifier?","","","","49.206743","-123.976677","","Google Earth, Google Maps, or other Satellite Imagery","","","","","","",NA,2012-07-26 09:47:40,2019-09-26 11:41:57,"Created by Rosie Barlak from 10 Vancouver Island, Nanaimo","Updated by Katy Fraser from 10 Vancouver Island, Nanaimo",2012-07-26,""
"E290472","DEPARTURE CREEK AT OUTLET (STN4)- RDN/ENV CWMN PROGRAM","River, Stream, or Creek","Park in gravel lot on Bay St behind 7-11, walk across the road to Departure Ck, sample downstream of culvert adjacent to First Nations buriel ground on corner of Bay St and Departure Bay Rd.This site is sampled by Vancouver Island University (stn4)","","","","49.206444","-123.969505","","Google Earth, Google Maps, or other Satellite Imagery","","","","","","",NA,2012-07-26 09:54:20,2019-09-26 11:42:42,"Created by Rosie Barlak from 10 Vancouver Island, Nanaimo","Updated by Katy Fraser from 10 Vancouver Island, Nanaimo",2012-07-26,""
"E290473","COTTLE CREEK @ NOTTINGHAM- RDN/ENV CWMN PROGRAM","River, Stream, or Creek","Going north on Hammond Bay Rd, turn onto the second Nottingham Drive. After about 150 m you will cross Cottle Creek. Sample upstream of where road crosses.","","","","49.217047","-123.958628","","Google Earth, Google Maps, or other Satellite Imagery","","","","","","",NA,2012-07-26 10:04:53,2019-09-26 11:43:10,"Created by Rosie Barlak from 10 Vancouver Island, Nanaimo","Updated by Katy Fraser from 10 Vancouver Island, Nanaimo",2012-07-26,""
"E290474","NORTH COTTLE CREEK 100 M D/S FROM BURMA RD- RDN/ENV CWMN PROGRAM","River, Stream, or Creek","From Hammond Bay Rd, turn onto Malaspina, then L onto Laguna Way, R onto Lost Lake Rd and L onto Burma. Park at roads end, hike down trail until you cross small creek. This is North Cottle Creek.","","","","49.223664","-123.979614","","Google Earth, Google Maps, or other Satellite Imagery","","","","","","",NA,2012-07-26 10:07:36,2019-09-26 11:46:35,"Created by Rosie Barlak from 10 Vancouver Island, Nanaimo","Updated by Katy Fraser from 10 Vancouver Island, Nanaimo",2012-07-26,""
"E290475","COTTLE CREEK @ STEPHENSON PT RD- RDN/ENV CWMN PROGRAM","River, Stream, or Creek","Going north on Hammond bay Rd, turn R onto Stephenson Point Rd, after about 150 m you will cross Cottle Creek. Sample upstream of road.","","","","49.211358","-123.953158","","Google Earth, Google Maps, or other Satellite Imagery","","","","","","",NA,2012-07-26 10:08:40,2019-09-26 11:46:07,"Created by Rosie Barlak from 10 Vancouver Island, Nanaimo","Updated by Katy Fraser from 10 Vancouver Island, Nanaimo",2012-07-26,""
"E290476","COTTLE CREEK @ LANDALT RD- RDN/ENV CWMN PROGRAM","River, Stream, or Creek","From Departure Bay Rd, turn onto Rock City Rd, L on Landalt Rd. Cottle Ck crosses Landalt, sample downstream (west) of road.","","","","49.218306","-123.988592","","Google Earth, Google Maps, or other Satellite Imagery","","","","","","",NA,2012-07-26 10:10:30,2019-09-26 11:47:08,"Created by Rosie Barlak from 10 Vancouver Island, Nanaimo","Updated by Katy Fraser from 10 Vancouver Island, Nanaimo",2012-07-26,""
"E290477","BENSON CREEK @ BIGGS ROAD- RDN/ENV CWMN PROGRAM","River, Stream, or Creek","Going north on Parkway, turn L onto Jinglepot (Mostar), then immediately right onto Biggs Rd. Follow up until you cross Benson Creek (sign labelling it).This site is sampled by VIU.","","","","49.204257","-124.060701","","Google Earth, Google Maps, or other Satellite Imagery","","","","","","",NA,2012-07-26 10:20:14,2019-09-26 11:47:38,"Created by Rosie Barlak from 10 Vancouver Island, Nanaimo","Updated by Katy Fraser from 10 Vancouver Island, Nanaimo",2012-07-26,""
"E290478","MILLSTONE RIVER @ BIGGS ROAD- RDN/ENV CWMN PROGRAM","River, Stream, or Creek","Going north on Parkway, turn L onto Jinglepot (Mostar), then immediately right onto Biggs Rd. Follow up until you cross Millstone River (sign labelling it)This site is sampled by VIU.","","","","49.205323","-124.052322","","Google Earth, Google Maps, or other Satellite Imagery","","","","","","",NA,2012-07-26 10:21:51,2019-09-26 11:48:13,"Created by Rosie Barlak from 10 Vancouver Island, Nanaimo","Updated by Katy Fraser from 10 Vancouver Island, Nanaimo",2012-07-26,""
"E290479","MCGARRIGLE CK @ JINGLE POT RD- RDN/ENV CWMN PROGRAM","River, Stream, or Creek","Follow Jinglepot Rd to Shady Mile area. Will cross labelled McGarrigle Creek. Sample u/s of rd.","","","","49.174708","-124.028672","","Google Earth, Google Maps, or other Satellite Imagery","","","","","","",NA,2012-07-26 10:27:13,2019-09-26 11:49:58,"Created by Rosie Barlak from 10 Vancouver Island, Nanaimo","Updated by Katy Fraser from 10 Vancouver Island, Nanaimo",2012-07-26,""
"E290480","MILLSTONE RIVER @ EAST WELLINGTON- RDN/ENV CWMN PROGRAM","River, Stream, or Creek","Continuing on Jinglepot turn L onto East Wellington. Sample where road crosses creek.","","","","49.180889","-123.998001","","Google Earth, Google Maps, or other Satellite Imagery","","","","","","",NA,2012-07-26 10:28:35,2019-09-26 11:50:29,"Created by Rosie Barlak from 10 Vancouver Island, Nanaimo","Updated by Katy Fraser from 10 Vancouver Island, Nanaimo",2012-07-26,""
"E290481","MILLSTONE RIVER IN BARSBY PARK- RDN/ENV CWMN PROGRAM","River, Stream, or Creek","Going West on Comox Rd towards the ocean, turn L onto Prideaux St, then L on Barsby Ave. Walk trail to creek.This site sampled by VIU.","","","","49.17375","-123.946187","","Google Earth, Google Maps, or other Satellite Imagery","","","","","","",NA,2012-07-26 10:29:59,2019-09-26 11:51:00,"Created by Rosie Barlak from 10 Vancouver Island, Nanaimo","Updated by Katy Fraser from 10 Vancouver Island, Nanaimo",2012-07-26,""
"E290482","NORTHFIELD CREEK @ OUTLET","River, Stream, or Creek","At the intersection of Beach Dr and Ocean Terrace and a short (~3 min) walk down the walkway and stairs to the creek. If you turn left at the bottom of the stairs, go past the wooden bridge and continue on to the end of the metal walkway (~20m?)","","","","49.192842","-123.958242","","Google Earth, Google Maps, or other Satellite Imagery","","","","","","",NA,2012-07-26 10:40:15,NA,"Created by Rosie Barlak from 10 Vancouver Island, Nanaimo","",2012-07-26,""
"E290483","CHASE RIVER @ AEBIG RD- RDN/ENV CWMN PROGRAM","River, Stream, or Creek","Going south on Old Island Hwy, turn R onto Haliburton, then right onto Old Victoria Rd. Turn L onto Aebig Rd, park just before brige, and sample upstream of the bridge (access from where you parked). There is currently no trail- walk through bush.","","","","49.135948","-123.925355","","Google Earth, Google Maps, or other Satellite Imagery","","","","","","",NA,2012-07-26 10:43:46,2019-09-26 11:59:32,"Created by Rosie Barlak from 10 Vancouver Island, Nanaimo","Updated by Katy Fraser from 10 Vancouver Island, Nanaimo",2012-07-26,""
"E290484","CHASE RIVER @HOWARD BELOW COLLIERY DAM- RDN/ENV CWMN PROGRAM","River, Stream, or Creek","Off of 5th Street turn south onto Howard Ave. Just after passing 6th street Howard will cross Chase R. Sample upstream of road, just upstream of bridge.","","","","49.150281","-123.955211","","Google Earth, Google Maps, or other Satellite Imagery","","","","","","",NA,2012-07-26 10:45:26,2019-09-26 11:56:31,"Created by Rosie Barlak from 10 Vancouver Island, Nanaimo","Updated by Katy Fraser from 10 Vancouver Island, Nanaimo",2012-07-26,""
"E290485","CHASE RIVER @ PARK AVE- RDN/ENV CWMN PROGRAM","River, Stream, or Creek","Continuing from Howard Ave site, turn L onto Seventh/Harewood Mines Rd, turn R onto Park Ave. This is a very steep access point. Sample upstream on the South side of bridge.","","","","49.146569","-123.943992","","Google Earth, Google Maps, or other Satellite Imagery","","","","","","",NA,2012-07-26 10:46:44,2019-09-26 11:57:08,"Created by Rosie Barlak from 10 Vancouver Island, Nanaimo","Updated by Katy Fraser from 10 Vancouver Island, Nanaimo",2012-07-26,""
"E290486","CATSTREAM @ PARK ABOVE CONFLUENCE WITH CHASE RIVER- RDN/ENV CWMN PROGRAM","River, Stream, or Creek","From the Chase R @ Park site, go north on Park Ave, cross 7th and just afterwards road will cross Cat Stream. Sample downstream of road on the South side of the bridge. Walk out onto fish ladder and sample just upstream of it.","","","","49.148672","-123.943742","","Google Earth, Google Maps, or other Satellite Imagery","","","","","","",NA,2012-07-26 10:48:18,2019-09-26 11:54:52,"Created by Rosie Barlak from 10 Vancouver Island, Nanaimo","Updated by Katy Fraser from 10 Vancouver Island, Nanaimo",2012-07-26,""
"E290487","BECK CREEK @ CEDAR RD- RDN/ENV CWMN PROGRAM","River, Stream, or Creek","from Highway turn onto Cedar Rd. Pull off to the left at the manufactured home park about 200m down Cedar Road. Walk over the bridge (careful of traffic), go over the barrier, and sample downstream of bridge.","","","","49.123378","-123.913647","","Google Earth, Google Maps, or other Satellite Imagery","","","","","","",NA,2012-07-26 10:50:00,2019-09-26 12:00:30,"Created by Rosie Barlak from 10 Vancouver Island, Nanaimo","Updated by Katy Fraser from 10 Vancouver Island, Nanaimo",2012-07-26,""
"E290489","RED ROOSTER GROUND INFILTRATION CHAMBER","Infiltration Pond","","","","","49.52291","-119.5591","","Google Earth, Google Maps, or other Satellite Imagery","","","","","","",NA,2012-07-27 11:23:49,2012-08-02 16:09:26,"Created by Database Link for EMA from 80 Southern Region, Penticton","Updated by  EMS from 80 Southern Region, Penticton",2012-07-27,""
"E290509","COLWOOD CREEK AT MOUTH","River, Stream, or Creek","Colwood Creek at mouth","","","","48.431389","-123.468611","","Google Earth, Google Maps, or other Satellite Imagery","","","","","","",NA,2012-08-05 11:37:07,NA,"Created by Deb Epps from 10 Vancouver Island, Nanaimo","",2012-08-05,""
"E290510","COLWOOD CREEK UPSTREAM GLEN LAKE","River, Stream, or Creek","Colwood creek upstream of Glen Lake, below small unnamed lake","","","","48.441389","-123.479444","","Google Earth, Google Maps, or other Satellite Imagery","","","","","","",NA,2012-08-05 11:39:30,NA,"Created by Deb Epps from 10 Vancouver Island, Nanaimo","",2012-08-05,""
"E290511","COLWOOD CREEK BELOW GLEN LAKE","River, Stream, or Creek","downstream of glen lake","","","","48.435278","-123.514722","","Google Earth, Google Maps, or other Satellite Imagery","","","","","","",NA,2012-08-05 11:40:35,NA,"Created by Deb Epps from 10 Vancouver Island, Nanaimo","",2012-08-05,""
"E290512","COLWOOD CREEK DOWNSTREAM GOLF COURSE","River, Stream, or Creek","downstream colwood lake","","","","48.443333","-123.493056","","Google Earth, Google Maps, or other Satellite Imagery","","","","","","",NA,2012-08-05 11:41:47,NA,"Created by Deb Epps from 10 Vancouver Island, Nanaimo","",2012-08-05,""
"E290513","COLQUITZ CREEK AT MOUTH","River, Stream, or Creek","","","","","48.456389","-123.401111","","Google Earth, Google Maps, or other Satellite Imagery","","","","","","",NA,2012-08-05 11:44:10,NA,"Created by Deb Epps from 10 Vancouver Island, Nanaimo","",2012-08-05,""
"E290514","COLQUITZ CREEK D/S SWAN CREEK","River, Stream, or Creek","downstream confluence with swan creek","","","","48.466389","-123.400833","","Google Earth, Google Maps, or other Satellite Imagery","","","","","","",NA,2012-08-05 11:45:48,NA,"Created by Deb Epps from 10 Vancouver Island, Nanaimo","",2012-08-05,""
"E290515","SWAN CREEK U/S COLQUITZ CREEK","River, Stream, or Creek","Swan creek before confluence with Colquitz creek","","","","48.4625","-123.376944","","Google Earth, Google Maps, or other Satellite Imagery","","","","","","",NA,2012-08-05 11:46:59,NA,"Created by Deb Epps from 10 Vancouver Island, Nanaimo","",2012-08-05,""
"E290516","BLENKINSOP CREEK U/S SWAN LAKE","River, Stream, or Creek","Blenkinsop creek upstream of swan lake","","","","48.463889","-123.365556","","Google Earth, Google Maps, or other Satellite Imagery","","","","","","",NA,2012-08-05 11:48:24,NA,"Created by Deb Epps from 10 Vancouver Island, Nanaimo","",2012-08-05,""
"E290517","COLQUITZ CREEK D/S ELK LAKE","River, Stream, or Creek","colquitz creek downstream of elk/beaver lakes*Location updated based on name and description from 48.349444N 123.396667W *","","","","48.5054","-123.396667","","Google Earth, Google Maps, or other Satellite Imagery","","","","","","",NA,2012-08-05 11:49:26,2018-08-17 14:13:20,"Created by Deb Epps from 10 Vancouver Island, Nanaimo","Updated by Jeremy Krogh from 10 Vancouver Island, Nanaimo",2012-08-05,""
"E290518","COLQUITZ CREEK U/S SWAN CREEK","River, Stream, or Creek","Colquitz creek upstream of confluence with swan creek","","","","48.4675","-123.401389","","Google Earth, Google Maps, or other Satellite Imagery","","","","","","",NA,2012-08-05 11:51:35,NA,"Created by Deb Epps from 10 Vancouver Island, Nanaimo","",2012-08-05,""
"E290529","KITIMAT SMELTERSITE ROAD","Air Quality","North Laydown Yard, very busy, high traffic area surrounded by dirt and heavy equipment, not hills, slight burm to the sourth , other than that the  area is very level area.","","","","54.018801","-128.700585","","Geographic Positioning System (NAD83)","","","","2","metre","",2016-06-02,2012-08-07 08:22:57,2016-06-03 11:21:19,"Created by Sharon Gunter from 60 Skeena","Updated by Sharon Gunter from 60 Skeena",2012-06-25,""
"E290549","MAMIT LAKE EAST SHORE","River, Stream, or Creek","","","","","50.388664","-120.804069","","Google Earth, Google Maps, or other Satellite Imagery","","","","","","",NA,2012-08-08 15:39:08,NA,"Created by Samantha Cooper from 30 Southern Region, Kamloops","",2012-08-08,""
"E290550","CATERPILLAR COMPRESSOR DRIVE UNITS","Stack","","","","","54.42","-122.21","","Geographic Positioning System (NAD83)","","","","","","",NA,2012-08-08 15:42:55,NA,"Created by Database Link for EMA from 71 Omineca Peace, Oil and Gas Commission","",2012-08-08,""
"E290569","SURFACE RUNOFF","In-Plant","","","","","59.22","-121.67","","Geographic Positioning System (NAD83)","","","106282","","","",NA,2012-08-10 09:37:56,2012-08-16 17:03:25,"Created by Database Link for EMA from 71 Omineca Peace, Oil and Gas Commission","Updated by Robert Gibson from 71 Omineca Peace, Oil and Gas Commission",2012-08-10,""
"E290570","SURFACE PRECIP","In-Plant","","","","","54.42","-122.21","","Geographic Positioning System (NAD83)","","","","","","",NA,2012-08-10 13:46:01,2012-08-16 17:03:26,"Created by Database Link for EMA from 71 Omineca Peace, Oil and Gas Commission","Updated by Robert Gibson from 71 Omineca Peace, Oil and Gas Commission",2012-08-10,""
"E290589","OBS WELL 412 - SUMMERLAND (UPPER TROUT CREEK)","Well","On crownland approx 40 km west of Summerland and 2 km from the intersection of the Princeton-Summerland Rd and Trout Creek FSR.  Well located on unsurveyed crown land, 1600 m north of District Lot 2104 KDYD (PID 013-185-331)","","","","49.7344","-120.1564","","1:50,000 scale map","","","","1250","metre","",NA,2012-08-13 09:52:49,2012-11-22 11:32:30,"Created by Skye Thomson from 80 Southern Region, Penticton","Updated by Bruce Boyd from 80 Southern Region, Penticton",2012-08-13,"TRUE"
"E290609","1660 KW CATERPILLAR G3608 TA COMPRESSOR DRIVE UNITS","Stack","","","","","54.42","-122.21","","Geographic Positioning System (NAD83)","","","106274","","","",NA,2012-08-16 13:33:32,2012-08-16 17:03:25,"Created by Database Link for EMA from 71 Omineca Peace, Oil and Gas Commission","Updated by Robert Gibson from 71 Omineca Peace, Oil and Gas Commission",2012-08-16,""
"E290629","GIBRALTAR PA1595 GRANITE IN-PIT CRUSHER COARSE ORE TRANSFER DUST COLLECTION","Stack","Granite Pit in-pit coarse ore transfer dust collection baghouse","","","","52.5158","-122.2777","","Google Earth, Google Maps, or other Satellite Imagery","","","1595","","","",NA,2012-08-17 09:46:19,2012-08-23 15:58:35,"Created by Database Link for EMA from 50 Cariboo, Williams Lake","Updated by Robert Gibson from 50 Cariboo, Williams Lake",2012-08-17,""
"E290649","FISH GUT ALLEY U/S MARCHMONT","River, Stream, or Creek","Fish gut alley upstream of City of Duncan marchmont storm drain discharge","","","","48.774681","-123.684883","","Google Earth, Google Maps, or other Satellite Imagery","","","","","","",NA,2012-08-21 17:34:14,NA,"Created by Deb Epps from 10 Vancouver Island, Nanaimo","",2012-08-21,""
"E290650","FISH GUT ALLEY D/S MARCHMONT","River, Stream, or Creek","Fish gut alley downstream of City of Duncan marchmont storm drain discharge","","","","48.776583","-123.681225","","Google Earth, Google Maps, or other Satellite Imagery","","","","","","",NA,2012-08-21 17:37:03,NA,"Created by Deb Epps from 10 Vancouver Island, Nanaimo","",2012-08-21,""
"E290669","12R-DRIR03","River, Stream, or Creek","Kotzine River in the Driftwood River watershed.","","","","55.80911","-126.47249","","Geographic Positioning System (NAD83)","","","","","","",NA,2012-08-23 12:40:05,2013-08-13 11:38:12,"Created by   from 70 Omineca-Peace, Prince George","Updated by   from 70 Omineca-Peace, Prince George",2011-08-18,""
"E290670","12R-DRIR01","River, Stream, or Creek","Unnamed Creek in Driftwood River watershed.","","","","55.77314","-126.3828","","Geographic Positioning System (NAD83)","","","","","","",NA,2012-08-23 12:40:52,2013-08-13 11:29:29,"Created by   from 70 Omineca-Peace, Prince George","Updated by   from 70 Omineca-Peace, Prince George",2011-08-18,""
"E290671","12R-DRIR02","River, Stream, or Creek","Lion Creek in the Driftwood River Watershed.","","","","55.77568","-126.342","","Geographic Positioning System (NAD83)","","","","","","",NA,2012-08-23 12:41:39,2013-08-13 11:34:05,"Created by   from 70 Omineca-Peace, Prince George","Updated by   from 70 Omineca-Peace, Prince George",2011-08-18,""
